[
{
    "model": "weather_app.city",
    "pk": 980,
    "fields": {
        "ru_name": "Москва",
        "en_name": "Moscow",
        "latitude": "55.7558",
        "longitude": "37.6176",
        "timezone": "Europe/Moscow"
    }
},
{
    "model": "weather_app.city",
    "pk": 981,
    "fields": {
        "ru_name": "Нью-Йорк",
        "en_name": "New York",
        "latitude": "40.7128",
        "longitude": "-74.0060",
        "timezone": "America/New_York"
    }
},
{
    "model": "weather_app.city",
    "pk": 982,
    "fields": {
        "ru_name": "Лондон",
        "en_name": "London",
        "latitude": "51.5074",
        "longitude": "-0.1278",
        "timezone": "Europe/London"
    }
},
{
    "model": "weather_app.city",
    "pk": 983,
    "fields": {
        "ru_name": "Париж",
        "en_name": "Paris",
        "latitude": "48.8566",
        "longitude": "2.3522",
        "timezone": "Europe/Paris"
    }
},
{
    "model": "weather_app.city",
    "pk": 984,
    "fields": {
        "ru_name": "Токио",
        "en_name": "Tokyo",
        "latitude": "35.6895",
        "longitude": "139.6917",
        "timezone": "Asia/Tokyo"
    }
},
{
    "model": "weather_app.city",
    "pk": 985,
    "fields": {
        "ru_name": "Пекин",
        "en_name": "Beijing",
        "latitude": "39.9042",
        "longitude": "116.4074",
        "timezone": "Asia/Shanghai"
    }
},
{
    "model": "weather_app.city",
    "pk": 986,
    "fields": {
        "ru_name": "Дели",
        "en_name": "Delhi",
        "latitude": "28.6139",
        "longitude": "77.2090",
        "timezone": "Asia/Kolkata"
    }
},
{
    "model": "weather_app.city",
    "pk": 987,
    "fields": {
        "ru_name": "Берлин",
        "en_name": "Berlin",
        "latitude": "52.5200",
        "longitude": "13.4050",
        "timezone": "Europe/Berlin"
    }
},
{
    "model": "weather_app.city",
    "pk": 988,
    "fields": {
        "ru_name": "Рим",
        "en_name": "Rome",
        "latitude": "41.9028",
        "longitude": "12.4964",
        "timezone": "Europe/Rome"
    }
},
{
    "model": "weather_app.city",
    "pk": 989,
    "fields": {
        "ru_name": "Мадрид",
        "en_name": "Madrid",
        "latitude": "40.4168",
        "longitude": "-3.7038",
        "timezone": "Europe/Madrid"
    }
},
{
    "model": "weather_app.city",
    "pk": 990,
    "fields": {
        "ru_name": "Лиссабон",
        "en_name": "Lisbon",
        "latitude": "38.7167",
        "longitude": "-9.1390",
        "timezone": "Europe/Lisbon"
    }
},
{
    "model": "weather_app.city",
    "pk": 991,
    "fields": {
        "ru_name": "Бангкок",
        "en_name": "Bangkok",
        "latitude": "13.7563",
        "longitude": "100.5018",
        "timezone": "Asia/Bangkok"
    }
},
{
    "model": "weather_app.city",
    "pk": 992,
    "fields": {
        "ru_name": "Сидней",
        "en_name": "Sydney",
        "latitude": "-33.8688",
        "longitude": "151.2093",
        "timezone": "Australia/Sydney"
    }
},
{
    "model": "weather_app.city",
    "pk": 993,
    "fields": {
        "ru_name": "Буэнос-Айрес",
        "en_name": "Buenos Aires",
        "latitude": "-34.6037",
        "longitude": "-58.3816",
        "timezone": "America/Argentina/Buenos_Aires"
    }
},
{
    "model": "weather_app.city",
    "pk": 994,
    "fields": {
        "ru_name": "Торонто",
        "en_name": "Toronto",
        "latitude": "43.6511",
        "longitude": "-79.3839",
        "timezone": "America/Toronto"
    }
},
{
    "model": "weather_app.city",
    "pk": 995,
    "fields": {
        "ru_name": "Чикаго",
        "en_name": "Chicago",
        "latitude": "41.8781",
        "longitude": "-87.6298",
        "timezone": "America/Chicago"
    }
},
{
    "model": "weather_app.city",
    "pk": 996,
    "fields": {
        "ru_name": "Лос-Анджелес",
        "en_name": "Los Angeles",
        "latitude": "34.0522",
        "longitude": "-118.2437",
        "timezone": "America/Los_Angeles"
    }
},
{
    "model": "weather_app.city",
    "pk": 997,
    "fields": {
        "ru_name": "Мехико",
        "en_name": "Mexico City",
        "latitude": "19.4326",
        "longitude": "-99.1332",
        "timezone": "America/Mexico_City"
    }
},
{
    "model": "weather_app.city",
    "pk": 998,
    "fields": {
        "ru_name": "Сан-Паулу",
        "en_name": "São Paulo",
        "latitude": "-23.5505",
        "longitude": "-46.6333",
        "timezone": "America/Sao_Paulo"
    }
},
{
    "model": "weather_app.city",
    "pk": 999,
    "fields": {
        "ru_name": "Рио-де-Жанейро",
        "en_name": "Rio de Janeiro",
        "latitude": "-22.9068",
        "longitude": "-43.1729",
        "timezone": "America/Sao_Paulo"
    }
},
{
    "model": "weather_app.city",
    "pk": 1000,
    "fields": {
        "ru_name": "Кейптаун",
        "en_name": "Cape Town",
        "latitude": "-33.9249",
        "longitude": "18.4241",
        "timezone": "Africa/Johannesburg"
    }
},
{
    "model": "weather_app.city",
    "pk": 1001,
    "fields": {
        "ru_name": "Каир",
        "en_name": "Cairo",
        "latitude": "30.0444",
        "longitude": "31.2357",
        "timezone": "Africa/Cairo"
    }
},
{
    "model": "weather_app.city",
    "pk": 1002,
    "fields": {
        "ru_name": "Стамбул",
        "en_name": "Istanbul",
        "latitude": "41.0082",
        "longitude": "28.9784",
        "timezone": "Europe/Istanbul"
    }
},
{
    "model": "weather_app.city",
    "pk": 1003,
    "fields": {
        "ru_name": "Сеул",
        "en_name": "Seoul",
        "latitude": "37.5665",
        "longitude": "126.9780",
        "timezone": "Asia/Seoul"
    }
},
{
    "model": "weather_app.city",
    "pk": 1004,
    "fields": {
        "ru_name": "Карачи",
        "en_name": "Karachi",
        "latitude": "24.8607",
        "longitude": "67.0011",
        "timezone": "Asia/Karachi"
    }
},
{
    "model": "weather_app.city",
    "pk": 1005,
    "fields": {
        "ru_name": "Манила",
        "en_name": "Manila",
        "latitude": "14.5995",
        "longitude": "120.9842",
        "timezone": "Asia/Manila"
    }
},
{
    "model": "weather_app.city",
    "pk": 1006,
    "fields": {
        "ru_name": "Джакарта",
        "en_name": "Jakarta",
        "latitude": "-6.2088",
        "longitude": "106.8456",
        "timezone": "Asia/Jakarta"
    }
},
{
    "model": "weather_app.city",
    "pk": 1007,
    "fields": {
        "ru_name": "Мумбаи",
        "en_name": "Mumbai",
        "latitude": "19.0760",
        "longitude": "72.8777",
        "timezone": "Asia/Kolkata"
    }
},
{
    "model": "weather_app.city",
    "pk": 1008,
    "fields": {
        "ru_name": "Лагос",
        "en_name": "Lagos",
        "latitude": "6.5244",
        "longitude": "3.3792",
        "timezone": "Africa/Lagos"
    }
},
{
    "model": "weather_app.city",
    "pk": 1009,
    "fields": {
        "ru_name": "Киншаса",
        "en_name": "Kinshasa",
        "latitude": "-4.4419",
        "longitude": "15.2663",
        "timezone": "Africa/Kinshasa"
    }
},
{
    "model": "weather_app.city",
    "pk": 1010,
    "fields": {
        "ru_name": "Ханой",
        "en_name": "Hanoi",
        "latitude": "21.0285",
        "longitude": "105.8542",
        "timezone": "Asia/Ho_Chi_Minh"
    }
},
{
    "model": "weather_app.city",
    "pk": 1011,
    "fields": {
        "ru_name": "Пномпень",
        "en_name": "Phnom Penh",
        "latitude": "11.5564",
        "longitude": "104.9282",
        "timezone": "Asia/Phnom_Penh"
    }
},
{
    "model": "weather_app.city",
    "pk": 1012,
    "fields": {
        "ru_name": "Сингапур",
        "en_name": "Singapore",
        "latitude": "1.3521",
        "longitude": "103.8198",
        "timezone": "Asia/Singapore"
    }
},
{
    "model": "weather_app.city",
    "pk": 1013,
    "fields": {
        "ru_name": "Багдад",
        "en_name": "Baghdad",
        "latitude": "33.3152",
        "longitude": "44.3661",
        "timezone": "Asia/Baghdad"
    }
},
{
    "model": "weather_app.city",
    "pk": 1014,
    "fields": {
        "ru_name": "Дамаск",
        "en_name": "Damascus",
        "latitude": "33.5138",
        "longitude": "36.2765",
        "timezone": "Asia/Damascus"
    }
},
{
    "model": "weather_app.city",
    "pk": 1015,
    "fields": {
        "ru_name": "Амман",
        "en_name": "Amman",
        "latitude": "31.9454",
        "longitude": "35.9284",
        "timezone": "Asia/Amman"
    }
},
{
    "model": "weather_app.city",
    "pk": 1016,
    "fields": {
        "ru_name": "Дубай",
        "en_name": "Dubai",
        "latitude": "25.2760",
        "longitude": "55.2962",
        "timezone": "Asia/Dubai"
    }
},
{
    "model": "weather_app.city",
    "pk": 1017,
    "fields": {
        "ru_name": "Тель-Авив",
        "en_name": "Tel Aviv",
        "latitude": "32.0853",
        "longitude": "34.7818",
        "timezone": "Asia/Jerusalem"
    }
},
{
    "model": "weather_app.city",
    "pk": 1018,
    "fields": {
        "ru_name": "Бейрут",
        "en_name": "Beirut",
        "latitude": "33.8938",
        "longitude": "35.5018",
        "timezone": "Asia/Beirut"
    }
},
{
    "model": "weather_app.city",
    "pk": 1019,
    "fields": {
        "ru_name": "Кувейт",
        "en_name": "Kuwait City",
        "latitude": "29.3759",
        "longitude": "47.9774",
        "timezone": "Asia/Kuwait"
    }
},
{
    "model": "weather_app.city",
    "pk": 1020,
    "fields": {
        "ru_name": "Доха",
        "en_name": "Doha",
        "latitude": "25.2760",
        "longitude": "51.5210",
        "timezone": "Asia/Qatar"
    }
},
{
    "model": "weather_app.city",
    "pk": 1021,
    "fields": {
        "ru_name": "Мале",
        "en_name": "Male",
        "latitude": "4.1755",
        "longitude": "73.5093",
        "timezone": "Indian/Maldives"
    }
},
{
    "model": "weather_app.city",
    "pk": 1022,
    "fields": {
        "ru_name": "Коломбо",
        "en_name": "Colombo",
        "latitude": "6.9271",
        "longitude": "79.8612",
        "timezone": "Asia/Colombo"
    }
},
{
    "model": "weather_app.city",
    "pk": 1023,
    "fields": {
        "ru_name": "Сейшельские острова",
        "en_name": "Seychelles",
        "latitude": "-4.6796",
        "longitude": "55.4920",
        "timezone": "Indian/Mahe"
    }
},
{
    "model": "weather_app.city",
    "pk": 1024,
    "fields": {
        "ru_name": "Маврикий",
        "en_name": "Mauritius",
        "latitude": "-20.3484",
        "longitude": "57.5522",
        "timezone": "Indian/Mauritius"
    }
},
{
    "model": "weather_app.city",
    "pk": 1025,
    "fields": {
        "ru_name": "Мапуту",
        "en_name": "Maputo",
        "latitude": "-25.9655",
        "longitude": "32.5892",
        "timezone": "Africa/Maputo"
    }
},
{
    "model": "weather_app.city",
    "pk": 1026,
    "fields": {
        "ru_name": "Лусака",
        "en_name": "Lusaka",
        "latitude": "-15.3875",
        "longitude": "28.3228",
        "timezone": "Africa/Lusaka"
    }
},
{
    "model": "weather_app.city",
    "pk": 1027,
    "fields": {
        "ru_name": "Габороне",
        "en_name": "Gaborone",
        "latitude": "-24.6282",
        "longitude": "25.9231",
        "timezone": "Africa/Gaborone"
    }
},
{
    "model": "weather_app.city",
    "pk": 1028,
    "fields": {
        "ru_name": "Хараре",
        "en_name": "Harare",
        "latitude": "-17.8292",
        "longitude": "31.0522",
        "timezone": "Africa/Harare"
    }
},
{
    "model": "weather_app.city",
    "pk": 1029,
    "fields": {
        "ru_name": "Кигали",
        "en_name": "Kigali",
        "latitude": "-1.9706",
        "longitude": "30.1044",
        "timezone": "Africa/Kigali"
    }
},
{
    "model": "weather_app.city",
    "pk": 1030,
    "fields": {
        "ru_name": "Бужумбура",
        "en_name": "Bujumbura",
        "latitude": "-3.3614",
        "longitude": "29.3599",
        "timezone": "Africa/Bujumbura"
    }
},
{
    "model": "weather_app.city",
    "pk": 1031,
    "fields": {
        "ru_name": "Браззавиль",
        "en_name": "Brazzaville",
        "latitude": "-4.2634",
        "longitude": "15.2429",
        "timezone": "Africa/Brazzaville"
    }
},
{
    "model": "weather_app.city",
    "pk": 1032,
    "fields": {
        "ru_name": "Ломе",
        "en_name": "Lome",
        "latitude": "6.1725",
        "longitude": "1.2314",
        "timezone": "Africa/Lome"
    }
},
{
    "model": "weather_app.city",
    "pk": 1033,
    "fields": {
        "ru_name": "Порт-Харкорт",
        "en_name": "Port Harcourt",
        "latitude": "4.8156",
        "longitude": "7.0498",
        "timezone": "Africa/Lagos"
    }
},
{
    "model": "weather_app.city",
    "pk": 1034,
    "fields": {
        "ru_name": "Монровия",
        "en_name": "Monrovia",
        "latitude": "6.3156",
        "longitude": "-10.8019",
        "timezone": "Africa/Monrovia"
    }
},
{
    "model": "weather_app.city",
    "pk": 1035,
    "fields": {
        "ru_name": "Аккра",
        "en_name": "Accra",
        "latitude": "5.6037",
        "longitude": "-0.1870",
        "timezone": "Africa/Accra"
    }
},
{
    "model": "weather_app.city",
    "pk": 1036,
    "fields": {
        "ru_name": "Дакар",
        "en_name": "Dakar",
        "latitude": "14.6928",
        "longitude": "-17.4467",
        "timezone": "Africa/Dakar"
    }
},
{
    "model": "weather_app.city",
    "pk": 1037,
    "fields": {
        "ru_name": "Луанда",
        "en_name": "Luanda",
        "latitude": "-8.8390",
        "longitude": "13.2894",
        "timezone": "Africa/Luanda"
    }
},
{
    "model": "weather_app.city",
    "pk": 1038,
    "fields": {
        "ru_name": "Виндхук",
        "en_name": "Windhoek",
        "latitude": "-22.5597",
        "longitude": "17.0832",
        "timezone": "Africa/Windhoek"
    }
},
{
    "model": "weather_app.city",
    "pk": 1039,
    "fields": {
        "ru_name": "Яунде",
        "en_name": "Yaounde",
        "latitude": "3.8480",
        "longitude": "11.5021",
        "timezone": "Africa/Douala"
    }
},
{
    "model": "weather_app.city",
    "pk": 1040,
    "fields": {
        "ru_name": "Абуджа",
        "en_name": "Abuja",
        "latitude": "9.0765",
        "longitude": "7.3986",
        "timezone": "Africa/Lagos"
    }
},
{
    "model": "weather_app.city",
    "pk": 1041,
    "fields": {
        "ru_name": "Асмэра",
        "en_name": "Asmara",
        "latitude": "15.3229",
        "longitude": "38.9251",
        "timezone": "Africa/Asmara"
    }
},
{
    "model": "weather_app.city",
    "pk": 1042,
    "fields": {
        "ru_name": "Могадишо",
        "en_name": "Mogadishu",
        "latitude": "2.0469",
        "longitude": "45.3182",
        "timezone": "Africa/Mogadishu"
    }
},
{
    "model": "weather_app.city",
    "pk": 1043,
    "fields": {
        "ru_name": "Аддис-Абеба",
        "en_name": "Addis Ababa",
        "latitude": "9.0370",
        "longitude": "38.7405",
        "timezone": "Africa/Addis_Ababa"
    }
},
{
    "model": "weather_app.city",
    "pk": 1044,
    "fields": {
        "ru_name": "Найроби",
        "en_name": "Nairobi",
        "latitude": "-1.2921",
        "longitude": "36.8219",
        "timezone": "Africa/Nairobi"
    }
},
{
    "model": "weather_app.city",
    "pk": 1045,
    "fields": {
        "ru_name": "Хартум",
        "en_name": "Khartoum",
        "latitude": "15.5007",
        "longitude": "32.5599",
        "timezone": "Africa/Khartoum"
    }
},
{
    "model": "weather_app.city",
    "pk": 1046,
    "fields": {
        "ru_name": "Тунис",
        "en_name": "Tunis",
        "latitude": "36.8065",
        "longitude": "10.1815",
        "timezone": "Africa/Tunis"
    }
},
{
    "model": "weather_app.city",
    "pk": 1047,
    "fields": {
        "ru_name": "Алжир",
        "en_name": "Algiers",
        "latitude": "36.7372",
        "longitude": "3.0866",
        "timezone": "Africa/Algiers"
    }
},
{
    "model": "weather_app.city",
    "pk": 1048,
    "fields": {
        "ru_name": "Рабат",
        "en_name": "Rabat",
        "latitude": "34.0209",
        "longitude": "-6.8416",
        "timezone": "Africa/Casablanca"
    }
},
{
    "model": "weather_app.city",
    "pk": 1049,
    "fields": {
        "ru_name": "Касабланка",
        "en_name": "Casablanca",
        "latitude": "33.5731",
        "longitude": "-7.5898",
        "timezone": "Africa/Casablanca"
    }
},
{
    "model": "weather_app.city",
    "pk": 1050,
    "fields": {
        "ru_name": "Маракеш",
        "en_name": "Marrakesh",
        "latitude": "31.6295",
        "longitude": "-7.9811",
        "timezone": "Africa/Casablanca"
    }
},
{
    "model": "weather_app.city",
    "pk": 1051,
    "fields": {
        "ru_name": "Танжер",
        "en_name": "Tangier",
        "latitude": "35.7595",
        "longitude": "-5.8339",
        "timezone": "Africa/Casablanca"
    }
},
{
    "model": "weather_app.city",
    "pk": 1052,
    "fields": {
        "ru_name": "Бамако",
        "en_name": "Bamako",
        "latitude": "12.6392",
        "longitude": "-8.0029",
        "timezone": "Africa/Bamako"
    }
},
{
    "model": "weather_app.city",
    "pk": 1053,
    "fields": {
        "ru_name": "Ниамей",
        "en_name": "Niamey",
        "latitude": "13.5126",
        "longitude": "2.1121",
        "timezone": "Africa/Niamey"
    }
},
{
    "model": "weather_app.city",
    "pk": 1054,
    "fields": {
        "ru_name": "Уагадугу",
        "en_name": "Ouagadougou",
        "latitude": "12.3714",
        "longitude": "-1.5197",
        "timezone": "Africa/Ouagadougou"
    }
},
{
    "model": "weather_app.city",
    "pk": 1055,
    "fields": {
        "ru_name": "Ямусукро",
        "en_name": "Yamoussoukro",
        "latitude": "6.8276",
        "longitude": "-5.2893",
        "timezone": "Africa/Abidjan"
    }
},
{
    "model": "weather_app.city",
    "pk": 1056,
    "fields": {
        "ru_name": "Малабо",
        "en_name": "Malabo",
        "latitude": "3.7504",
        "longitude": "8.7371",
        "timezone": "Africa/Malabo"
    }
},
{
    "model": "weather_app.city",
    "pk": 1057,
    "fields": {
        "ru_name": "Либревиль",
        "en_name": "Libreville",
        "latitude": "0.4162",
        "longitude": "9.4673",
        "timezone": "Africa/Libreville"
    }
},
{
    "model": "weather_app.city",
    "pk": 1058,
    "fields": {
        "ru_name": "Джибути",
        "en_name": "Djibouti",
        "latitude": "11.5880",
        "longitude": "43.1456",
        "timezone": "Africa/Djibouti"
    }
},
{
    "model": "weather_app.city",
    "pk": 1059,
    "fields": {
        "ru_name": "Виктория",
        "en_name": "Victoria",
        "latitude": "-4.6167",
        "longitude": "55.4500",
        "timezone": "Indian/Mahe"
    }
},
{
    "model": "weather_app.city",
    "pk": 1060,
    "fields": {
        "ru_name": "Порт-Луи",
        "en_name": "Port Louis",
        "latitude": "-20.1668",
        "longitude": "57.5036",
        "timezone": "Indian/Mauritius"
    }
},
{
    "model": "weather_app.city",
    "pk": 1061,
    "fields": {
        "ru_name": "Эр-Рияд",
        "en_name": "Riyadh",
        "latitude": "24.7136",
        "longitude": "46.6753",
        "timezone": "Asia/Riyadh"
    }
},
{
    "model": "weather_app.city",
    "pk": 1062,
    "fields": {
        "ru_name": "Сана",
        "en_name": "Sana'a",
        "latitude": "15.3694",
        "longitude": "44.1910",
        "timezone": "Asia/Aden"
    }
},
{
    "model": "weather_app.city",
    "pk": 1063,
    "fields": {
        "ru_name": "Маскат",
        "en_name": "Muscat",
        "latitude": "23.5880",
        "longitude": "58.3829",
        "timezone": "Asia/Muscat"
    }
},
{
    "model": "weather_app.city",
    "pk": 1064,
    "fields": {
        "ru_name": "Абу-Даби",
        "en_name": "Abu Dhabi",
        "latitude": "24.4539",
        "longitude": "54.3773",
        "timezone": "Asia/Dubai"
    }
},
{
    "model": "weather_app.city",
    "pk": 1065,
    "fields": {
        "ru_name": "Ташкент",
        "en_name": "Tashkent",
        "latitude": "41.2995",
        "longitude": "69.2401",
        "timezone": "Asia/Tashkent"
    }
},
{
    "model": "weather_app.city",
    "pk": 1066,
    "fields": {
        "ru_name": "Ашхабад",
        "en_name": "Ashgabat",
        "latitude": "37.9601",
        "longitude": "58.3261",
        "timezone": "Asia/Ashgabat"
    }
},
{
    "model": "weather_app.city",
    "pk": 1067,
    "fields": {
        "ru_name": "Душанбе",
        "en_name": "Dushanbe",
        "latitude": "38.5598",
        "longitude": "68.7870",
        "timezone": "Asia/Dushanbe"
    }
},
{
    "model": "weather_app.city",
    "pk": 1068,
    "fields": {
        "ru_name": "Бишкек",
        "en_name": "Bishkek",
        "latitude": "42.8746",
        "longitude": "74.5698",
        "timezone": "Asia/Bishkek"
    }
},
{
    "model": "weather_app.city",
    "pk": 1069,
    "fields": {
        "ru_name": "Астана",
        "en_name": "Astana",
        "latitude": "51.1694",
        "longitude": "71.4491",
        "timezone": "Asia/Almaty"
    }
},
{
    "model": "weather_app.city",
    "pk": 1070,
    "fields": {
        "ru_name": "Санкт-Петербург",
        "en_name": "Saint Petersburg",
        "latitude": "59.9343",
        "longitude": "30.3351",
        "timezone": "Europe/Moscow"
    }
},
{
    "model": "weather_app.city",
    "pk": 1071,
    "fields": {
        "ru_name": "Адыгейск",
        "en_name": null,
        "latitude": "44.8784",
        "longitude": "39.1902",
        "timezone": "Europe/Moscow"
    }
},
{
    "model": "weather_app.city",
    "pk": 1072,
    "fields": {
        "ru_name": "Майкоп",
        "en_name": null,
        "latitude": "44.6098",
        "longitude": "40.1007",
        "timezone": "Europe/Moscow"
    }
},
{
    "model": "weather_app.city",
    "pk": 1073,
    "fields": {
        "ru_name": "Горно-Алтайск",
        "en_name": null,
        "latitude": "51.9583",
        "longitude": "85.9603",
        "timezone": "Europe/Moscow"
    }
},
{
    "model": "weather_app.city",
    "pk": 1074,
    "fields": {
        "ru_name": "Алейск",
        "en_name": null,
        "latitude": "52.4921",
        "longitude": "82.7794",
        "timezone": "Europe/Moscow"
    }
},
{
    "model": "weather_app.city",
    "pk": 1075,
    "fields": {
        "ru_name": "Барнаул",
        "en_name": null,
        "latitude": "53.3481",
        "longitude": "83.7798",
        "timezone": "Europe/Moscow"
    }
},
{
    "model": "weather_app.city",
    "pk": 1076,
    "fields": {
        "ru_name": "Белокуриха",
        "en_name": null,
        "latitude": "51.9961",
        "longitude": "84.9840",
        "timezone": "Europe/Moscow"
    }
},
{
    "model": "weather_app.city",
    "pk": 1077,
    "fields": {
        "ru_name": "Бийск",
        "en_name": null,
        "latitude": "52.5394",
        "longitude": "85.2139",
        "timezone": "Europe/Moscow"
    }
},
{
    "model": "weather_app.city",
    "pk": 1078,
    "fields": {
        "ru_name": "Горняк",
        "en_name": null,
        "latitude": "50.9979",
        "longitude": "81.4643",
        "timezone": "Europe/Moscow"
    }
},
{
    "model": "weather_app.city",
    "pk": 1079,
    "fields": {
        "ru_name": "Заринск",
        "en_name": null,
        "latitude": "53.7063",
        "longitude": "84.9315",
        "timezone": "Europe/Moscow"
    }
},
{
    "model": "weather_app.city",
    "pk": 1080,
    "fields": {
        "ru_name": "Змеиногорск",
        "en_name": null,
        "latitude": "51.1580",
        "longitude": "82.1872",
        "timezone": "Europe/Moscow"
    }
},
{
    "model": "weather_app.city",
    "pk": 1081,
    "fields": {
        "ru_name": "Камень-на-Оби",
        "en_name": null,
        "latitude": "53.7915",
        "longitude": "81.3545",
        "timezone": "Europe/Moscow"
    }
},
{
    "model": "weather_app.city",
    "pk": 1082,
    "fields": {
        "ru_name": "Новоалтайск",
        "en_name": null,
        "latitude": "53.4121",
        "longitude": "83.9311",
        "timezone": "Europe/Moscow"
    }
},
{
    "model": "weather_app.city",
    "pk": 1083,
    "fields": {
        "ru_name": "Рубцовск",
        "en_name": null,
        "latitude": "51.5013",
        "longitude": "81.2078",
        "timezone": "Europe/Moscow"
    }
},
{
    "model": "weather_app.city",
    "pk": 1084,
    "fields": {
        "ru_name": "Славгород",
        "en_name": null,
        "latitude": "52.9993",
        "longitude": "78.6460",
        "timezone": "Europe/Moscow"
    }
},
{
    "model": "weather_app.city",
    "pk": 1085,
    "fields": {
        "ru_name": "Яровое",
        "en_name": null,
        "latitude": "52.9252",
        "longitude": "78.5730",
        "timezone": "Europe/Moscow"
    }
},
{
    "model": "weather_app.city",
    "pk": 1086,
    "fields": {
        "ru_name": "Белогорск",
        "en_name": null,
        "latitude": "50.9212",
        "longitude": "128.4739",
        "timezone": "Europe/Moscow"
    }
},
{
    "model": "weather_app.city",
    "pk": 1087,
    "fields": {
        "ru_name": "Благовещенск",
        "en_name": null,
        "latitude": "50.2906",
        "longitude": "127.5272",
        "timezone": "Europe/Moscow"
    }
},
{
    "model": "weather_app.city",
    "pk": 1088,
    "fields": {
        "ru_name": "Завитинск",
        "en_name": null,
        "latitude": "50.1065",
        "longitude": "129.4393",
        "timezone": "Europe/Moscow"
    }
},
{
    "model": "weather_app.city",
    "pk": 1089,
    "fields": {
        "ru_name": "Зея",
        "en_name": null,
        "latitude": "53.7339",
        "longitude": "127.2658",
        "timezone": "Europe/Moscow"
    }
},
{
    "model": "weather_app.city",
    "pk": 1090,
    "fields": {
        "ru_name": "Райчихинск",
        "en_name": null,
        "latitude": "49.7942",
        "longitude": "129.4112",
        "timezone": "Europe/Moscow"
    }
},
{
    "model": "weather_app.city",
    "pk": 1091,
    "fields": {
        "ru_name": "Свободный",
        "en_name": null,
        "latitude": "51.3613",
        "longitude": "128.1219",
        "timezone": "Europe/Moscow"
    }
},
{
    "model": "weather_app.city",
    "pk": 1092,
    "fields": {
        "ru_name": "Сковородино",
        "en_name": null,
        "latitude": "53.9871",
        "longitude": "123.9437",
        "timezone": "Europe/Moscow"
    }
},
{
    "model": "weather_app.city",
    "pk": 1093,
    "fields": {
        "ru_name": "Тында",
        "en_name": null,
        "latitude": "55.1546",
        "longitude": "124.7469",
        "timezone": "Europe/Moscow"
    }
},
{
    "model": "weather_app.city",
    "pk": 1094,
    "fields": {
        "ru_name": "Циолковский",
        "en_name": null,
        "latitude": "51.7624",
        "longitude": "128.1220",
        "timezone": "Europe/Moscow"
    }
},
{
    "model": "weather_app.city",
    "pk": 1095,
    "fields": {
        "ru_name": "Шимановск",
        "en_name": null,
        "latitude": "52.0053",
        "longitude": "127.7007",
        "timezone": "Europe/Moscow"
    }
},
{
    "model": "weather_app.city",
    "pk": 1096,
    "fields": {
        "ru_name": "Архангельск",
        "en_name": null,
        "latitude": "64.5393",
        "longitude": "40.5170",
        "timezone": "Europe/Moscow"
    }
},
{
    "model": "weather_app.city",
    "pk": 1097,
    "fields": {
        "ru_name": "Вельск",
        "en_name": null,
        "latitude": "61.0660",
        "longitude": "42.1033",
        "timezone": "Europe/Moscow"
    }
},
{
    "model": "weather_app.city",
    "pk": 1098,
    "fields": {
        "ru_name": "Каргополь",
        "en_name": null,
        "latitude": "61.5009",
        "longitude": "38.9636",
        "timezone": "Europe/Moscow"
    }
},
{
    "model": "weather_app.city",
    "pk": 1099,
    "fields": {
        "ru_name": "Коряжма",
        "en_name": null,
        "latitude": "61.2886",
        "longitude": "47.1002",
        "timezone": "Europe/Moscow"
    }
},
{
    "model": "weather_app.city",
    "pk": 1100,
    "fields": {
        "ru_name": "Котлас",
        "en_name": null,
        "latitude": "61.2530",
        "longitude": "46.6332",
        "timezone": "Europe/Moscow"
    }
},
{
    "model": "weather_app.city",
    "pk": 1101,
    "fields": {
        "ru_name": "Мезень",
        "en_name": null,
        "latitude": "65.8398",
        "longitude": "44.2532",
        "timezone": "Europe/Moscow"
    }
},
{
    "model": "weather_app.city",
    "pk": 1102,
    "fields": {
        "ru_name": "Мирный",
        "en_name": null,
        "latitude": "62.7644",
        "longitude": "40.3360",
        "timezone": "Europe/Moscow"
    }
},
{
    "model": "weather_app.city",
    "pk": 1103,
    "fields": {
        "ru_name": "Новодвинск",
        "en_name": null,
        "latitude": "64.4136",
        "longitude": "40.8208",
        "timezone": "Europe/Moscow"
    }
},
{
    "model": "weather_app.city",
    "pk": 1104,
    "fields": {
        "ru_name": "Няндома",
        "en_name": null,
        "latitude": "61.6654",
        "longitude": "40.2062",
        "timezone": "Europe/Moscow"
    }
},
{
    "model": "weather_app.city",
    "pk": 1105,
    "fields": {
        "ru_name": "Онега",
        "en_name": null,
        "latitude": "63.9164",
        "longitude": "38.0806",
        "timezone": "Europe/Moscow"
    }
},
{
    "model": "weather_app.city",
    "pk": 1106,
    "fields": {
        "ru_name": "Северодвинск",
        "en_name": null,
        "latitude": "64.5625",
        "longitude": "39.8183",
        "timezone": "Europe/Moscow"
    }
},
{
    "model": "weather_app.city",
    "pk": 1107,
    "fields": {
        "ru_name": "Сольвычегодск",
        "en_name": null,
        "latitude": "61.3318",
        "longitude": "46.9204",
        "timezone": "Europe/Moscow"
    }
},
{
    "model": "weather_app.city",
    "pk": 1108,
    "fields": {
        "ru_name": "Шенкурск",
        "en_name": null,
        "latitude": "62.1057",
        "longitude": "42.8996",
        "timezone": "Europe/Moscow"
    }
},
{
    "model": "weather_app.city",
    "pk": 1109,
    "fields": {
        "ru_name": "Астрахань",
        "en_name": null,
        "latitude": "46.3656",
        "longitude": "48.0560",
        "timezone": "Europe/Moscow"
    }
},
{
    "model": "weather_app.city",
    "pk": 1110,
    "fields": {
        "ru_name": "Ахтубинск",
        "en_name": null,
        "latitude": "48.2753",
        "longitude": "46.1907",
        "timezone": "Europe/Moscow"
    }
},
{
    "model": "weather_app.city",
    "pk": 1111,
    "fields": {
        "ru_name": "Знаменск",
        "en_name": null,
        "latitude": "48.5866",
        "longitude": "45.7368",
        "timezone": "Europe/Moscow"
    }
},
{
    "model": "weather_app.city",
    "pk": 1112,
    "fields": {
        "ru_name": "Камызяк",
        "en_name": null,
        "latitude": "46.1105",
        "longitude": "48.0733",
        "timezone": "Europe/Moscow"
    }
},
{
    "model": "weather_app.city",
    "pk": 1113,
    "fields": {
        "ru_name": "Нариманов",
        "en_name": null,
        "latitude": "46.6917",
        "longitude": "47.8502",
        "timezone": "Europe/Moscow"
    }
},
{
    "model": "weather_app.city",
    "pk": 1114,
    "fields": {
        "ru_name": "Харабали",
        "en_name": null,
        "latitude": "47.4089",
        "longitude": "47.2524",
        "timezone": "Europe/Moscow"
    }
},
{
    "model": "weather_app.city",
    "pk": 1115,
    "fields": {
        "ru_name": "Агидель",
        "en_name": null,
        "latitude": "55.8998",
        "longitude": "53.9221",
        "timezone": "Europe/Moscow"
    }
},
{
    "model": "weather_app.city",
    "pk": 1116,
    "fields": {
        "ru_name": "Баймак",
        "en_name": null,
        "latitude": "52.5913",
        "longitude": "58.3112",
        "timezone": "Europe/Moscow"
    }
},
{
    "model": "weather_app.city",
    "pk": 1117,
    "fields": {
        "ru_name": "Белебей",
        "en_name": null,
        "latitude": "54.1034",
        "longitude": "54.1112",
        "timezone": "Europe/Moscow"
    }
},
{
    "model": "weather_app.city",
    "pk": 1118,
    "fields": {
        "ru_name": "Белорецк",
        "en_name": null,
        "latitude": "53.9676",
        "longitude": "58.4100",
        "timezone": "Europe/Moscow"
    }
},
{
    "model": "weather_app.city",
    "pk": 1119,
    "fields": {
        "ru_name": "Бирск",
        "en_name": null,
        "latitude": "55.4157",
        "longitude": "55.5582",
        "timezone": "Europe/Moscow"
    }
},
{
    "model": "weather_app.city",
    "pk": 1120,
    "fields": {
        "ru_name": "Давлеканово",
        "en_name": null,
        "latitude": "54.2228",
        "longitude": "55.0313",
        "timezone": "Europe/Moscow"
    }
},
{
    "model": "weather_app.city",
    "pk": 1121,
    "fields": {
        "ru_name": "Дюртюли",
        "en_name": null,
        "latitude": "55.4848",
        "longitude": "54.8525",
        "timezone": "Europe/Moscow"
    }
},
{
    "model": "weather_app.city",
    "pk": 1122,
    "fields": {
        "ru_name": "Ишимбай",
        "en_name": null,
        "latitude": "53.4546",
        "longitude": "56.0439",
        "timezone": "Europe/Moscow"
    }
},
{
    "model": "weather_app.city",
    "pk": 1123,
    "fields": {
        "ru_name": "Кумертау",
        "en_name": null,
        "latitude": "52.7566",
        "longitude": "55.7970",
        "timezone": "Europe/Moscow"
    }
},
{
    "model": "weather_app.city",
    "pk": 1124,
    "fields": {
        "ru_name": "Межгорье",
        "en_name": null,
        "latitude": "54.2397",
        "longitude": "57.9615",
        "timezone": "Europe/Moscow"
    }
},
{
    "model": "weather_app.city",
    "pk": 1125,
    "fields": {
        "ru_name": "Мелеуз",
        "en_name": null,
        "latitude": "52.9591",
        "longitude": "55.9283",
        "timezone": "Europe/Moscow"
    }
},
{
    "model": "weather_app.city",
    "pk": 1126,
    "fields": {
        "ru_name": "Нефтекамск",
        "en_name": null,
        "latitude": "56.0883",
        "longitude": "54.2483",
        "timezone": "Europe/Moscow"
    }
},
{
    "model": "weather_app.city",
    "pk": 1127,
    "fields": {
        "ru_name": "Октябрьский",
        "en_name": null,
        "latitude": "54.4815",
        "longitude": "53.4657",
        "timezone": "Europe/Moscow"
    }
},
{
    "model": "weather_app.city",
    "pk": 1128,
    "fields": {
        "ru_name": "Салават",
        "en_name": null,
        "latitude": "53.3616",
        "longitude": "55.9246",
        "timezone": "Europe/Moscow"
    }
},
{
    "model": "weather_app.city",
    "pk": 1129,
    "fields": {
        "ru_name": "Сибай",
        "en_name": null,
        "latitude": "52.7206",
        "longitude": "58.6663",
        "timezone": "Europe/Moscow"
    }
},
{
    "model": "weather_app.city",
    "pk": 1130,
    "fields": {
        "ru_name": "Стерлитамак",
        "en_name": null,
        "latitude": "53.6302",
        "longitude": "55.9316",
        "timezone": "Europe/Moscow"
    }
},
{
    "model": "weather_app.city",
    "pk": 1131,
    "fields": {
        "ru_name": "Туймазы",
        "en_name": null,
        "latitude": "54.6000",
        "longitude": "53.6949",
        "timezone": "Europe/Moscow"
    }
},
{
    "model": "weather_app.city",
    "pk": 1132,
    "fields": {
        "ru_name": "Уфа",
        "en_name": null,
        "latitude": "54.7349",
        "longitude": "55.9579",
        "timezone": "Europe/Moscow"
    }
},
{
    "model": "weather_app.city",
    "pk": 1133,
    "fields": {
        "ru_name": "Учалы",
        "en_name": null,
        "latitude": "54.3067",
        "longitude": "59.4127",
        "timezone": "Europe/Moscow"
    }
},
{
    "model": "weather_app.city",
    "pk": 1134,
    "fields": {
        "ru_name": "Янаул",
        "en_name": null,
        "latitude": "56.2650",
        "longitude": "54.9298",
        "timezone": "Europe/Moscow"
    }
},
{
    "model": "weather_app.city",
    "pk": 1135,
    "fields": {
        "ru_name": "Алексеевка",
        "en_name": null,
        "latitude": "50.6300",
        "longitude": "38.6882",
        "timezone": "Europe/Moscow"
    }
},
{
    "model": "weather_app.city",
    "pk": 1136,
    "fields": {
        "ru_name": "Белгород",
        "en_name": null,
        "latitude": "50.5977",
        "longitude": "36.5858",
        "timezone": "Europe/Moscow"
    }
},
{
    "model": "weather_app.city",
    "pk": 1137,
    "fields": {
        "ru_name": "Бирюч",
        "en_name": null,
        "latitude": "50.6484",
        "longitude": "38.4006",
        "timezone": "Europe/Moscow"
    }
},
{
    "model": "weather_app.city",
    "pk": 1138,
    "fields": {
        "ru_name": "Валуйки",
        "en_name": null,
        "latitude": "50.2113",
        "longitude": "38.0999",
        "timezone": "Europe/Moscow"
    }
},
{
    "model": "weather_app.city",
    "pk": 1139,
    "fields": {
        "ru_name": "Грайворон",
        "en_name": null,
        "latitude": "50.4863",
        "longitude": "35.6663",
        "timezone": "Europe/Moscow"
    }
},
{
    "model": "weather_app.city",
    "pk": 1140,
    "fields": {
        "ru_name": "Губкин",
        "en_name": null,
        "latitude": "51.2836",
        "longitude": "37.5348",
        "timezone": "Europe/Moscow"
    }
},
{
    "model": "weather_app.city",
    "pk": 1141,
    "fields": {
        "ru_name": "Короча",
        "en_name": null,
        "latitude": "50.8130",
        "longitude": "37.1897",
        "timezone": "Europe/Moscow"
    }
},
{
    "model": "weather_app.city",
    "pk": 1142,
    "fields": {
        "ru_name": "Новый Оскол",
        "en_name": null,
        "latitude": "50.7635",
        "longitude": "37.8774",
        "timezone": "Europe/Moscow"
    }
},
{
    "model": "weather_app.city",
    "pk": 1143,
    "fields": {
        "ru_name": "Старый Оскол",
        "en_name": null,
        "latitude": "51.2966",
        "longitude": "37.8350",
        "timezone": "Europe/Moscow"
    }
},
{
    "model": "weather_app.city",
    "pk": 1144,
    "fields": {
        "ru_name": "Строитель",
        "en_name": null,
        "latitude": "50.7846",
        "longitude": "36.4887",
        "timezone": "Europe/Moscow"
    }
},
{
    "model": "weather_app.city",
    "pk": 1145,
    "fields": {
        "ru_name": "Шебекино",
        "en_name": null,
        "latitude": "50.4006",
        "longitude": "36.8878",
        "timezone": "Europe/Moscow"
    }
},
{
    "model": "weather_app.city",
    "pk": 1146,
    "fields": {
        "ru_name": "Брянск",
        "en_name": null,
        "latitude": "53.2420",
        "longitude": "34.3653",
        "timezone": "Europe/Moscow"
    }
},
{
    "model": "weather_app.city",
    "pk": 1147,
    "fields": {
        "ru_name": "Дятьково",
        "en_name": null,
        "latitude": "53.5958",
        "longitude": "34.3551",
        "timezone": "Europe/Moscow"
    }
},
{
    "model": "weather_app.city",
    "pk": 1148,
    "fields": {
        "ru_name": "Жуковка",
        "en_name": null,
        "latitude": "53.5341",
        "longitude": "33.7302",
        "timezone": "Europe/Moscow"
    }
},
{
    "model": "weather_app.city",
    "pk": 1149,
    "fields": {
        "ru_name": "Злынка",
        "en_name": null,
        "latitude": "52.4266",
        "longitude": "31.7360",
        "timezone": "Europe/Moscow"
    }
},
{
    "model": "weather_app.city",
    "pk": 1150,
    "fields": {
        "ru_name": "Карачев",
        "en_name": null,
        "latitude": "53.1297",
        "longitude": "34.9888",
        "timezone": "Europe/Moscow"
    }
},
{
    "model": "weather_app.city",
    "pk": 1151,
    "fields": {
        "ru_name": "Клинцы",
        "en_name": null,
        "latitude": "52.7529",
        "longitude": "32.2339",
        "timezone": "Europe/Moscow"
    }
},
{
    "model": "weather_app.city",
    "pk": 1152,
    "fields": {
        "ru_name": "Мглин",
        "en_name": null,
        "latitude": "53.0601",
        "longitude": "32.8467",
        "timezone": "Europe/Moscow"
    }
},
{
    "model": "weather_app.city",
    "pk": 1153,
    "fields": {
        "ru_name": "Новозыбков",
        "en_name": null,
        "latitude": "52.5371",
        "longitude": "31.9357",
        "timezone": "Europe/Moscow"
    }
},
{
    "model": "weather_app.city",
    "pk": 1154,
    "fields": {
        "ru_name": "Почеп",
        "en_name": null,
        "latitude": "52.9155",
        "longitude": "33.4745",
        "timezone": "Europe/Moscow"
    }
},
{
    "model": "weather_app.city",
    "pk": 1155,
    "fields": {
        "ru_name": "Севск",
        "en_name": null,
        "latitude": "52.1484",
        "longitude": "34.4918",
        "timezone": "Europe/Moscow"
    }
},
{
    "model": "weather_app.city",
    "pk": 1156,
    "fields": {
        "ru_name": "Сельцо",
        "en_name": null,
        "latitude": "53.3739",
        "longitude": "34.1059",
        "timezone": "Europe/Moscow"
    }
},
{
    "model": "weather_app.city",
    "pk": 1157,
    "fields": {
        "ru_name": "Стародуб",
        "en_name": null,
        "latitude": "52.5852",
        "longitude": "32.7604",
        "timezone": "Europe/Moscow"
    }
},
{
    "model": "weather_app.city",
    "pk": 1158,
    "fields": {
        "ru_name": "Сураж",
        "en_name": null,
        "latitude": "53.0171",
        "longitude": "32.3938",
        "timezone": "Europe/Moscow"
    }
},
{
    "model": "weather_app.city",
    "pk": 1159,
    "fields": {
        "ru_name": "Трубчевск",
        "en_name": null,
        "latitude": "52.5791",
        "longitude": "33.7660",
        "timezone": "Europe/Moscow"
    }
},
{
    "model": "weather_app.city",
    "pk": 1160,
    "fields": {
        "ru_name": "Унеча",
        "en_name": null,
        "latitude": "52.8461",
        "longitude": "32.6757",
        "timezone": "Europe/Moscow"
    }
},
{
    "model": "weather_app.city",
    "pk": 1161,
    "fields": {
        "ru_name": "Фокино",
        "en_name": null,
        "latitude": "53.4555",
        "longitude": "34.4159",
        "timezone": "Europe/Moscow"
    }
},
{
    "model": "weather_app.city",
    "pk": 1162,
    "fields": {
        "ru_name": "Бабушкин",
        "en_name": null,
        "latitude": "51.7113",
        "longitude": "105.8674",
        "timezone": "Europe/Moscow"
    }
},
{
    "model": "weather_app.city",
    "pk": 1163,
    "fields": {
        "ru_name": "Гусиноозерск",
        "en_name": null,
        "latitude": "51.2866",
        "longitude": "106.5231",
        "timezone": "Europe/Moscow"
    }
},
{
    "model": "weather_app.city",
    "pk": 1164,
    "fields": {
        "ru_name": "Закаменск",
        "en_name": null,
        "latitude": "50.3727",
        "longitude": "103.2867",
        "timezone": "Europe/Moscow"
    }
},
{
    "model": "weather_app.city",
    "pk": 1165,
    "fields": {
        "ru_name": "Кяхта",
        "en_name": null,
        "latitude": "50.3466",
        "longitude": "106.4535",
        "timezone": "Europe/Moscow"
    }
},
{
    "model": "weather_app.city",
    "pk": 1166,
    "fields": {
        "ru_name": "Северобайкальск",
        "en_name": null,
        "latitude": "55.6357",
        "longitude": "109.3363",
        "timezone": "Europe/Moscow"
    }
},
{
    "model": "weather_app.city",
    "pk": 1167,
    "fields": {
        "ru_name": "Улан-Удэ",
        "en_name": null,
        "latitude": "51.8334",
        "longitude": "107.5842",
        "timezone": "Europe/Moscow"
    }
},
{
    "model": "weather_app.city",
    "pk": 1168,
    "fields": {
        "ru_name": "Александров",
        "en_name": null,
        "latitude": "56.3920",
        "longitude": "38.7110",
        "timezone": "Europe/Moscow"
    }
},
{
    "model": "weather_app.city",
    "pk": 1169,
    "fields": {
        "ru_name": "Владимир",
        "en_name": null,
        "latitude": "56.1282",
        "longitude": "40.4083",
        "timezone": "Europe/Moscow"
    }
},
{
    "model": "weather_app.city",
    "pk": 1170,
    "fields": {
        "ru_name": "Вязники",
        "en_name": null,
        "latitude": "56.2977",
        "longitude": "42.2687",
        "timezone": "Europe/Moscow"
    }
},
{
    "model": "weather_app.city",
    "pk": 1171,
    "fields": {
        "ru_name": "Гороховец",
        "en_name": null,
        "latitude": "56.2021",
        "longitude": "42.6925",
        "timezone": "Europe/Moscow"
    }
},
{
    "model": "weather_app.city",
    "pk": 1172,
    "fields": {
        "ru_name": "Гусь-Хрустальный",
        "en_name": null,
        "latitude": "55.6198",
        "longitude": "40.6579",
        "timezone": "Europe/Moscow"
    }
},
{
    "model": "weather_app.city",
    "pk": 1173,
    "fields": {
        "ru_name": "Камешково",
        "en_name": null,
        "latitude": "56.3489",
        "longitude": "40.9956",
        "timezone": "Europe/Moscow"
    }
},
{
    "model": "weather_app.city",
    "pk": 1174,
    "fields": {
        "ru_name": "Карабаново",
        "en_name": null,
        "latitude": "56.3133",
        "longitude": "38.7034",
        "timezone": "Europe/Moscow"
    }
},
{
    "model": "weather_app.city",
    "pk": 1175,
    "fields": {
        "ru_name": "Киржач",
        "en_name": null,
        "latitude": "56.1485",
        "longitude": "38.8635",
        "timezone": "Europe/Moscow"
    }
},
{
    "model": "weather_app.city",
    "pk": 1176,
    "fields": {
        "ru_name": "Ковров",
        "en_name": null,
        "latitude": "56.3554",
        "longitude": "41.3170",
        "timezone": "Europe/Moscow"
    }
},
{
    "model": "weather_app.city",
    "pk": 1177,
    "fields": {
        "ru_name": "Кольчугино",
        "en_name": null,
        "latitude": "56.3328",
        "longitude": "39.3912",
        "timezone": "Europe/Moscow"
    }
},
{
    "model": "weather_app.city",
    "pk": 1178,
    "fields": {
        "ru_name": "Костерево",
        "en_name": null,
        "latitude": "55.9336",
        "longitude": "39.6248",
        "timezone": "Europe/Moscow"
    }
},
{
    "model": "weather_app.city",
    "pk": 1179,
    "fields": {
        "ru_name": "Курлово",
        "en_name": null,
        "latitude": "55.4526",
        "longitude": "40.6124",
        "timezone": "Europe/Moscow"
    }
},
{
    "model": "weather_app.city",
    "pk": 1180,
    "fields": {
        "ru_name": "Лакинск",
        "en_name": null,
        "latitude": "56.0181",
        "longitude": "39.9565",
        "timezone": "Europe/Moscow"
    }
},
{
    "model": "weather_app.city",
    "pk": 1181,
    "fields": {
        "ru_name": "Меленки",
        "en_name": null,
        "latitude": "55.3387",
        "longitude": "41.6341",
        "timezone": "Europe/Moscow"
    }
},
{
    "model": "weather_app.city",
    "pk": 1182,
    "fields": {
        "ru_name": "Муром",
        "en_name": null,
        "latitude": "55.5632",
        "longitude": "42.0230",
        "timezone": "Europe/Moscow"
    }
},
{
    "model": "weather_app.city",
    "pk": 1183,
    "fields": {
        "ru_name": "Петушки",
        "en_name": null,
        "latitude": "55.9298",
        "longitude": "39.4508",
        "timezone": "Europe/Moscow"
    }
},
{
    "model": "weather_app.city",
    "pk": 1184,
    "fields": {
        "ru_name": "Покров",
        "en_name": null,
        "latitude": "55.9167",
        "longitude": "39.1734",
        "timezone": "Europe/Moscow"
    }
},
{
    "model": "weather_app.city",
    "pk": 1185,
    "fields": {
        "ru_name": "Радужный",
        "en_name": null,
        "latitude": "55.9961",
        "longitude": "40.3323",
        "timezone": "Europe/Moscow"
    }
},
{
    "model": "weather_app.city",
    "pk": 1186,
    "fields": {
        "ru_name": "Собинка",
        "en_name": null,
        "latitude": "55.9938",
        "longitude": "40.0180",
        "timezone": "Europe/Moscow"
    }
},
{
    "model": "weather_app.city",
    "pk": 1187,
    "fields": {
        "ru_name": "Струнино",
        "en_name": null,
        "latitude": "56.3750",
        "longitude": "38.5839",
        "timezone": "Europe/Moscow"
    }
},
{
    "model": "weather_app.city",
    "pk": 1188,
    "fields": {
        "ru_name": "Судогда",
        "en_name": null,
        "latitude": "55.9499",
        "longitude": "40.8563",
        "timezone": "Europe/Moscow"
    }
},
{
    "model": "weather_app.city",
    "pk": 1189,
    "fields": {
        "ru_name": "Суздаль",
        "en_name": null,
        "latitude": "56.4274",
        "longitude": "40.4526",
        "timezone": "Europe/Moscow"
    }
},
{
    "model": "weather_app.city",
    "pk": 1190,
    "fields": {
        "ru_name": "Юрьев-Польский",
        "en_name": null,
        "latitude": "56.4938",
        "longitude": "39.6679",
        "timezone": "Europe/Moscow"
    }
},
{
    "model": "weather_app.city",
    "pk": 1191,
    "fields": {
        "ru_name": "Волгоград",
        "en_name": null,
        "latitude": "48.7072",
        "longitude": "44.5170",
        "timezone": "Europe/Moscow"
    }
},
{
    "model": "weather_app.city",
    "pk": 1192,
    "fields": {
        "ru_name": "Волжский",
        "en_name": null,
        "latitude": "48.7978",
        "longitude": "44.7462",
        "timezone": "Europe/Moscow"
    }
},
{
    "model": "weather_app.city",
    "pk": 1193,
    "fields": {
        "ru_name": "Дубовка",
        "en_name": null,
        "latitude": "49.0555",
        "longitude": "44.8271",
        "timezone": "Europe/Moscow"
    }
},
{
    "model": "weather_app.city",
    "pk": 1194,
    "fields": {
        "ru_name": "Жирновск",
        "en_name": null,
        "latitude": "50.9768",
        "longitude": "44.7858",
        "timezone": "Europe/Moscow"
    }
},
{
    "model": "weather_app.city",
    "pk": 1195,
    "fields": {
        "ru_name": "Калач-на-Дону",
        "en_name": null,
        "latitude": "48.6888",
        "longitude": "43.5307",
        "timezone": "Europe/Moscow"
    }
},
{
    "model": "weather_app.city",
    "pk": 1196,
    "fields": {
        "ru_name": "Камышин",
        "en_name": null,
        "latitude": "50.0651",
        "longitude": "45.3844",
        "timezone": "Europe/Moscow"
    }
},
{
    "model": "weather_app.city",
    "pk": 1197,
    "fields": {
        "ru_name": "Котельниково",
        "en_name": null,
        "latitude": "47.6311",
        "longitude": "43.1331",
        "timezone": "Europe/Moscow"
    }
},
{
    "model": "weather_app.city",
    "pk": 1198,
    "fields": {
        "ru_name": "Котово",
        "en_name": null,
        "latitude": "50.3205",
        "longitude": "44.8032",
        "timezone": "Europe/Moscow"
    }
},
{
    "model": "weather_app.city",
    "pk": 1199,
    "fields": {
        "ru_name": "Краснослободск",
        "en_name": null,
        "latitude": "48.7069",
        "longitude": "44.5632",
        "timezone": "Europe/Moscow"
    }
},
{
    "model": "weather_app.city",
    "pk": 1200,
    "fields": {
        "ru_name": "Ленинск",
        "en_name": null,
        "latitude": "48.6936",
        "longitude": "45.1993",
        "timezone": "Europe/Moscow"
    }
},
{
    "model": "weather_app.city",
    "pk": 1201,
    "fields": {
        "ru_name": "Михайловка",
        "en_name": null,
        "latitude": "50.0709",
        "longitude": "43.2401",
        "timezone": "Europe/Moscow"
    }
},
{
    "model": "weather_app.city",
    "pk": 1202,
    "fields": {
        "ru_name": "Николаевск",
        "en_name": null,
        "latitude": "50.0167",
        "longitude": "45.4733",
        "timezone": "Europe/Moscow"
    }
},
{
    "model": "weather_app.city",
    "pk": 1203,
    "fields": {
        "ru_name": "Новоаннинский",
        "en_name": null,
        "latitude": "50.5297",
        "longitude": "42.6666",
        "timezone": "Europe/Moscow"
    }
},
{
    "model": "weather_app.city",
    "pk": 1204,
    "fields": {
        "ru_name": "Палласовка",
        "en_name": null,
        "latitude": "50.0501",
        "longitude": "46.8803",
        "timezone": "Europe/Moscow"
    }
},
{
    "model": "weather_app.city",
    "pk": 1205,
    "fields": {
        "ru_name": "Петров Вал",
        "en_name": null,
        "latitude": "50.1380",
        "longitude": "45.2091",
        "timezone": "Europe/Moscow"
    }
},
{
    "model": "weather_app.city",
    "pk": 1206,
    "fields": {
        "ru_name": "Серафимович",
        "en_name": null,
        "latitude": "49.5663",
        "longitude": "42.7360",
        "timezone": "Europe/Moscow"
    }
},
{
    "model": "weather_app.city",
    "pk": 1207,
    "fields": {
        "ru_name": "Суровикино",
        "en_name": null,
        "latitude": "48.6190",
        "longitude": "42.8541",
        "timezone": "Europe/Moscow"
    }
},
{
    "model": "weather_app.city",
    "pk": 1208,
    "fields": {
        "ru_name": "Урюпинск",
        "en_name": null,
        "latitude": "50.7905",
        "longitude": "42.0289",
        "timezone": "Europe/Moscow"
    }
},
{
    "model": "weather_app.city",
    "pk": 1209,
    "fields": {
        "ru_name": "Фролово",
        "en_name": null,
        "latitude": "49.7648",
        "longitude": "43.6649",
        "timezone": "Europe/Moscow"
    }
},
{
    "model": "weather_app.city",
    "pk": 1210,
    "fields": {
        "ru_name": "Бабаево",
        "en_name": null,
        "latitude": "59.3893",
        "longitude": "35.9378",
        "timezone": "Europe/Moscow"
    }
},
{
    "model": "weather_app.city",
    "pk": 1211,
    "fields": {
        "ru_name": "Белозерск",
        "en_name": null,
        "latitude": "60.0308",
        "longitude": "37.7891",
        "timezone": "Europe/Moscow"
    }
},
{
    "model": "weather_app.city",
    "pk": 1212,
    "fields": {
        "ru_name": "Великий Устюг",
        "en_name": null,
        "latitude": "60.7603",
        "longitude": "46.3054",
        "timezone": "Europe/Moscow"
    }
},
{
    "model": "weather_app.city",
    "pk": 1213,
    "fields": {
        "ru_name": "Вологда",
        "en_name": null,
        "latitude": "59.2484",
        "longitude": "39.8356",
        "timezone": "Europe/Moscow"
    }
},
{
    "model": "weather_app.city",
    "pk": 1214,
    "fields": {
        "ru_name": "Вытегра",
        "en_name": null,
        "latitude": "61.0064",
        "longitude": "36.4496",
        "timezone": "Europe/Moscow"
    }
},
{
    "model": "weather_app.city",
    "pk": 1215,
    "fields": {
        "ru_name": "Грязовец",
        "en_name": null,
        "latitude": "58.8758",
        "longitude": "40.2485",
        "timezone": "Europe/Moscow"
    }
},
{
    "model": "weather_app.city",
    "pk": 1216,
    "fields": {
        "ru_name": "Кадников",
        "en_name": null,
        "latitude": "59.5038",
        "longitude": "40.3440",
        "timezone": "Europe/Moscow"
    }
},
{
    "model": "weather_app.city",
    "pk": 1217,
    "fields": {
        "ru_name": "Кириллов",
        "en_name": null,
        "latitude": "59.8590",
        "longitude": "38.3750",
        "timezone": "Europe/Moscow"
    }
},
{
    "model": "weather_app.city",
    "pk": 1218,
    "fields": {
        "ru_name": "Красавино",
        "en_name": null,
        "latitude": "60.9614",
        "longitude": "46.4815",
        "timezone": "Europe/Moscow"
    }
},
{
    "model": "weather_app.city",
    "pk": 1219,
    "fields": {
        "ru_name": "Никольск",
        "en_name": null,
        "latitude": "59.5350",
        "longitude": "45.4575",
        "timezone": "Europe/Moscow"
    }
},
{
    "model": "weather_app.city",
    "pk": 1220,
    "fields": {
        "ru_name": "Сокол",
        "en_name": null,
        "latitude": "59.4759",
        "longitude": "40.1114",
        "timezone": "Europe/Moscow"
    }
},
{
    "model": "weather_app.city",
    "pk": 1221,
    "fields": {
        "ru_name": "Тотьма",
        "en_name": null,
        "latitude": "59.9735",
        "longitude": "42.7590",
        "timezone": "Europe/Moscow"
    }
},
{
    "model": "weather_app.city",
    "pk": 1222,
    "fields": {
        "ru_name": "Устюжна",
        "en_name": null,
        "latitude": "58.8384",
        "longitude": "36.4425",
        "timezone": "Europe/Moscow"
    }
},
{
    "model": "weather_app.city",
    "pk": 1223,
    "fields": {
        "ru_name": "Харовск",
        "en_name": null,
        "latitude": "59.9478",
        "longitude": "40.2001",
        "timezone": "Europe/Moscow"
    }
},
{
    "model": "weather_app.city",
    "pk": 1224,
    "fields": {
        "ru_name": "Череповец",
        "en_name": null,
        "latitude": "59.1269",
        "longitude": "37.9092",
        "timezone": "Europe/Moscow"
    }
},
{
    "model": "weather_app.city",
    "pk": 1225,
    "fields": {
        "ru_name": "Бобров",
        "en_name": null,
        "latitude": "51.0902",
        "longitude": "40.0320",
        "timezone": "Europe/Moscow"
    }
},
{
    "model": "weather_app.city",
    "pk": 1226,
    "fields": {
        "ru_name": "Богучар",
        "en_name": null,
        "latitude": "49.9353",
        "longitude": "40.5592",
        "timezone": "Europe/Moscow"
    }
},
{
    "model": "weather_app.city",
    "pk": 1227,
    "fields": {
        "ru_name": "Борисоглебск",
        "en_name": null,
        "latitude": "51.3655",
        "longitude": "42.1009",
        "timezone": "Europe/Moscow"
    }
},
{
    "model": "weather_app.city",
    "pk": 1228,
    "fields": {
        "ru_name": "Бутурлиновка",
        "en_name": null,
        "latitude": "50.8313",
        "longitude": "40.5978",
        "timezone": "Europe/Moscow"
    }
},
{
    "model": "weather_app.city",
    "pk": 1229,
    "fields": {
        "ru_name": "Воронеж",
        "en_name": null,
        "latitude": "51.6592",
        "longitude": "39.1968",
        "timezone": "Europe/Moscow"
    }
},
{
    "model": "weather_app.city",
    "pk": 1230,
    "fields": {
        "ru_name": "Калач",
        "en_name": null,
        "latitude": "50.4241",
        "longitude": "41.0163",
        "timezone": "Europe/Moscow"
    }
},
{
    "model": "weather_app.city",
    "pk": 1231,
    "fields": {
        "ru_name": "Лиски",
        "en_name": null,
        "latitude": "50.9945",
        "longitude": "39.5183",
        "timezone": "Europe/Moscow"
    }
},
{
    "model": "weather_app.city",
    "pk": 1232,
    "fields": {
        "ru_name": "Нововоронеж",
        "en_name": null,
        "latitude": "51.3092",
        "longitude": "39.2163",
        "timezone": "Europe/Moscow"
    }
},
{
    "model": "weather_app.city",
    "pk": 1233,
    "fields": {
        "ru_name": "Новохоперск",
        "en_name": null,
        "latitude": "51.0953",
        "longitude": "41.6174",
        "timezone": "Europe/Moscow"
    }
},
{
    "model": "weather_app.city",
    "pk": 1234,
    "fields": {
        "ru_name": "Острогожск",
        "en_name": null,
        "latitude": "50.8678",
        "longitude": "39.0406",
        "timezone": "Europe/Moscow"
    }
},
{
    "model": "weather_app.city",
    "pk": 1235,
    "fields": {
        "ru_name": "Павловск",
        "en_name": null,
        "latitude": "50.4534",
        "longitude": "40.1369",
        "timezone": "Europe/Moscow"
    }
},
{
    "model": "weather_app.city",
    "pk": 1236,
    "fields": {
        "ru_name": "Поворино",
        "en_name": null,
        "latitude": "51.1953",
        "longitude": "42.2472",
        "timezone": "Europe/Moscow"
    }
},
{
    "model": "weather_app.city",
    "pk": 1237,
    "fields": {
        "ru_name": "Россошь",
        "en_name": null,
        "latitude": "50.1701",
        "longitude": "39.6226",
        "timezone": "Europe/Moscow"
    }
},
{
    "model": "weather_app.city",
    "pk": 1238,
    "fields": {
        "ru_name": "Семилуки",
        "en_name": null,
        "latitude": "51.6952",
        "longitude": "39.0190",
        "timezone": "Europe/Moscow"
    }
},
{
    "model": "weather_app.city",
    "pk": 1239,
    "fields": {
        "ru_name": "Эртиль",
        "en_name": null,
        "latitude": "51.8310",
        "longitude": "40.8074",
        "timezone": "Europe/Moscow"
    }
},
{
    "model": "weather_app.city",
    "pk": 1240,
    "fields": {
        "ru_name": "Буйнакск",
        "en_name": null,
        "latitude": "42.8214",
        "longitude": "47.1164",
        "timezone": "Europe/Moscow"
    }
},
{
    "model": "weather_app.city",
    "pk": 1241,
    "fields": {
        "ru_name": "Дагестанские Огни",
        "en_name": null,
        "latitude": "42.1151",
        "longitude": "48.1940",
        "timezone": "Europe/Moscow"
    }
},
{
    "model": "weather_app.city",
    "pk": 1242,
    "fields": {
        "ru_name": "Дербент",
        "en_name": null,
        "latitude": "42.0589",
        "longitude": "48.2909",
        "timezone": "Europe/Moscow"
    }
},
{
    "model": "weather_app.city",
    "pk": 1243,
    "fields": {
        "ru_name": "Избербаш",
        "en_name": null,
        "latitude": "42.5651",
        "longitude": "47.8710",
        "timezone": "Europe/Moscow"
    }
},
{
    "model": "weather_app.city",
    "pk": 1244,
    "fields": {
        "ru_name": "Каспийск",
        "en_name": null,
        "latitude": "42.8917",
        "longitude": "47.6367",
        "timezone": "Europe/Moscow"
    }
},
{
    "model": "weather_app.city",
    "pk": 1245,
    "fields": {
        "ru_name": "Кизилюрт",
        "en_name": null,
        "latitude": "43.2039",
        "longitude": "46.8729",
        "timezone": "Europe/Moscow"
    }
},
{
    "model": "weather_app.city",
    "pk": 1246,
    "fields": {
        "ru_name": "Кизляр",
        "en_name": null,
        "latitude": "43.8484",
        "longitude": "46.7233",
        "timezone": "Europe/Moscow"
    }
},
{
    "model": "weather_app.city",
    "pk": 1247,
    "fields": {
        "ru_name": "Махачкала",
        "en_name": null,
        "latitude": "42.9849",
        "longitude": "47.5046",
        "timezone": "Europe/Moscow"
    }
},
{
    "model": "weather_app.city",
    "pk": 1248,
    "fields": {
        "ru_name": "Хасавюрт",
        "en_name": null,
        "latitude": "43.2505",
        "longitude": "46.5852",
        "timezone": "Europe/Moscow"
    }
},
{
    "model": "weather_app.city",
    "pk": 1249,
    "fields": {
        "ru_name": "Южно-Сухокумск",
        "en_name": null,
        "latitude": "44.6601",
        "longitude": "45.6499",
        "timezone": "Europe/Moscow"
    }
},
{
    "model": "weather_app.city",
    "pk": 1250,
    "fields": {
        "ru_name": "Биробиджан",
        "en_name": null,
        "latitude": "48.7946",
        "longitude": "132.9218",
        "timezone": "Europe/Moscow"
    }
},
{
    "model": "weather_app.city",
    "pk": 1251,
    "fields": {
        "ru_name": "Облучье",
        "en_name": null,
        "latitude": "49.0188",
        "longitude": "131.0540",
        "timezone": "Europe/Moscow"
    }
},
{
    "model": "weather_app.city",
    "pk": 1252,
    "fields": {
        "ru_name": "Балей",
        "en_name": null,
        "latitude": "51.5822",
        "longitude": "116.6380",
        "timezone": "Europe/Moscow"
    }
},
{
    "model": "weather_app.city",
    "pk": 1253,
    "fields": {
        "ru_name": "Борзя",
        "en_name": null,
        "latitude": "50.3875",
        "longitude": "116.5236",
        "timezone": "Europe/Moscow"
    }
},
{
    "model": "weather_app.city",
    "pk": 1254,
    "fields": {
        "ru_name": "Краснокаменск",
        "en_name": null,
        "latitude": "50.0929",
        "longitude": "118.0323",
        "timezone": "Europe/Moscow"
    }
},
{
    "model": "weather_app.city",
    "pk": 1255,
    "fields": {
        "ru_name": "Могоча",
        "en_name": null,
        "latitude": "53.7362",
        "longitude": "119.7661",
        "timezone": "Europe/Moscow"
    }
},
{
    "model": "weather_app.city",
    "pk": 1256,
    "fields": {
        "ru_name": "Нерчинск",
        "en_name": null,
        "latitude": "51.9596",
        "longitude": "116.5854",
        "timezone": "Europe/Moscow"
    }
},
{
    "model": "weather_app.city",
    "pk": 1257,
    "fields": {
        "ru_name": "Петровск-Забайкальский",
        "en_name": null,
        "latitude": "51.2748",
        "longitude": "108.8467",
        "timezone": "Europe/Moscow"
    }
},
{
    "model": "weather_app.city",
    "pk": 1258,
    "fields": {
        "ru_name": "Сретенск",
        "en_name": null,
        "latitude": "52.2462",
        "longitude": "117.7117",
        "timezone": "Europe/Moscow"
    }
},
{
    "model": "weather_app.city",
    "pk": 1259,
    "fields": {
        "ru_name": "Хилок",
        "en_name": null,
        "latitude": "51.3635",
        "longitude": "110.4590",
        "timezone": "Europe/Moscow"
    }
},
{
    "model": "weather_app.city",
    "pk": 1260,
    "fields": {
        "ru_name": "Чита",
        "en_name": null,
        "latitude": "52.0340",
        "longitude": "113.4995",
        "timezone": "Europe/Moscow"
    }
},
{
    "model": "weather_app.city",
    "pk": 1261,
    "fields": {
        "ru_name": "Шилка",
        "en_name": null,
        "latitude": "51.8495",
        "longitude": "116.0336",
        "timezone": "Europe/Moscow"
    }
},
{
    "model": "weather_app.city",
    "pk": 1262,
    "fields": {
        "ru_name": "Вичуга",
        "en_name": null,
        "latitude": "57.2045",
        "longitude": "41.9131",
        "timezone": "Europe/Moscow"
    }
},
{
    "model": "weather_app.city",
    "pk": 1263,
    "fields": {
        "ru_name": "Гаврилов Посад",
        "en_name": null,
        "latitude": "56.5586",
        "longitude": "40.1228",
        "timezone": "Europe/Moscow"
    }
},
{
    "model": "weather_app.city",
    "pk": 1264,
    "fields": {
        "ru_name": "Заволжск",
        "en_name": null,
        "latitude": "57.4917",
        "longitude": "42.1374",
        "timezone": "Europe/Moscow"
    }
},
{
    "model": "weather_app.city",
    "pk": 1265,
    "fields": {
        "ru_name": "Иваново",
        "en_name": null,
        "latitude": "56.9995",
        "longitude": "40.9728",
        "timezone": "Europe/Moscow"
    }
},
{
    "model": "weather_app.city",
    "pk": 1266,
    "fields": {
        "ru_name": "Кинешма",
        "en_name": null,
        "latitude": "57.4425",
        "longitude": "42.1690",
        "timezone": "Europe/Moscow"
    }
},
{
    "model": "weather_app.city",
    "pk": 1267,
    "fields": {
        "ru_name": "Комсомольск",
        "en_name": null,
        "latitude": "57.0274",
        "longitude": "40.3776",
        "timezone": "Europe/Moscow"
    }
},
{
    "model": "weather_app.city",
    "pk": 1268,
    "fields": {
        "ru_name": "Кохма",
        "en_name": null,
        "latitude": "56.9325",
        "longitude": "41.0933",
        "timezone": "Europe/Moscow"
    }
},
{
    "model": "weather_app.city",
    "pk": 1269,
    "fields": {
        "ru_name": "Наволоки",
        "en_name": null,
        "latitude": "57.4678",
        "longitude": "41.9607",
        "timezone": "Europe/Moscow"
    }
},
{
    "model": "weather_app.city",
    "pk": 1270,
    "fields": {
        "ru_name": "Плес",
        "en_name": null,
        "latitude": "57.4605",
        "longitude": "41.5123",
        "timezone": "Europe/Moscow"
    }
},
{
    "model": "weather_app.city",
    "pk": 1271,
    "fields": {
        "ru_name": "Приволжск",
        "en_name": null,
        "latitude": "57.3807",
        "longitude": "41.2809",
        "timezone": "Europe/Moscow"
    }
},
{
    "model": "weather_app.city",
    "pk": 1272,
    "fields": {
        "ru_name": "Пучеж",
        "en_name": null,
        "latitude": "56.9821",
        "longitude": "43.1684",
        "timezone": "Europe/Moscow"
    }
},
{
    "model": "weather_app.city",
    "pk": 1273,
    "fields": {
        "ru_name": "Родники",
        "en_name": null,
        "latitude": "57.1024",
        "longitude": "41.7299",
        "timezone": "Europe/Moscow"
    }
},
{
    "model": "weather_app.city",
    "pk": 1274,
    "fields": {
        "ru_name": "Тейково",
        "en_name": null,
        "latitude": "56.8543",
        "longitude": "40.5355",
        "timezone": "Europe/Moscow"
    }
},
{
    "model": "weather_app.city",
    "pk": 1275,
    "fields": {
        "ru_name": "Фурманов",
        "en_name": null,
        "latitude": "57.2538",
        "longitude": "41.1054",
        "timezone": "Europe/Moscow"
    }
},
{
    "model": "weather_app.city",
    "pk": 1276,
    "fields": {
        "ru_name": "Шуя",
        "en_name": null,
        "latitude": "56.8561",
        "longitude": "41.3802",
        "timezone": "Europe/Moscow"
    }
},
{
    "model": "weather_app.city",
    "pk": 1277,
    "fields": {
        "ru_name": "Южа",
        "en_name": null,
        "latitude": "56.5926",
        "longitude": "42.0457",
        "timezone": "Europe/Moscow"
    }
},
{
    "model": "weather_app.city",
    "pk": 1278,
    "fields": {
        "ru_name": "Юрьевец",
        "en_name": null,
        "latitude": "57.3179",
        "longitude": "43.1111",
        "timezone": "Europe/Moscow"
    }
},
{
    "model": "weather_app.city",
    "pk": 1279,
    "fields": {
        "ru_name": "Карабулак",
        "en_name": null,
        "latitude": "43.3055",
        "longitude": "44.9095",
        "timezone": "Europe/Moscow"
    }
},
{
    "model": "weather_app.city",
    "pk": 1280,
    "fields": {
        "ru_name": "Магас",
        "en_name": null,
        "latitude": "43.1687",
        "longitude": "44.8131",
        "timezone": "Europe/Moscow"
    }
},
{
    "model": "weather_app.city",
    "pk": 1281,
    "fields": {
        "ru_name": "Малгобек",
        "en_name": null,
        "latitude": "43.5097",
        "longitude": "44.5902",
        "timezone": "Europe/Moscow"
    }
},
{
    "model": "weather_app.city",
    "pk": 1282,
    "fields": {
        "ru_name": "Назрань",
        "en_name": null,
        "latitude": "43.2258",
        "longitude": "44.7647",
        "timezone": "Europe/Moscow"
    }
},
{
    "model": "weather_app.city",
    "pk": 1283,
    "fields": {
        "ru_name": "Алзамай",
        "en_name": null,
        "latitude": "55.5550",
        "longitude": "98.6644",
        "timezone": "Europe/Moscow"
    }
},
{
    "model": "weather_app.city",
    "pk": 1284,
    "fields": {
        "ru_name": "Ангарск",
        "en_name": null,
        "latitude": "52.5448",
        "longitude": "103.8885",
        "timezone": "Europe/Moscow"
    }
},
{
    "model": "weather_app.city",
    "pk": 1285,
    "fields": {
        "ru_name": "Байкальск",
        "en_name": null,
        "latitude": "51.5231",
        "longitude": "104.1486",
        "timezone": "Europe/Moscow"
    }
},
{
    "model": "weather_app.city",
    "pk": 1286,
    "fields": {
        "ru_name": "Бирюсинск",
        "en_name": null,
        "latitude": "55.9609",
        "longitude": "97.8204",
        "timezone": "Europe/Moscow"
    }
},
{
    "model": "weather_app.city",
    "pk": 1287,
    "fields": {
        "ru_name": "Бодайбо",
        "en_name": null,
        "latitude": "57.8469",
        "longitude": "114.1867",
        "timezone": "Europe/Moscow"
    }
},
{
    "model": "weather_app.city",
    "pk": 1288,
    "fields": {
        "ru_name": "Братск",
        "en_name": null,
        "latitude": "56.1514",
        "longitude": "101.6340",
        "timezone": "Europe/Moscow"
    }
},
{
    "model": "weather_app.city",
    "pk": 1289,
    "fields": {
        "ru_name": "Вихоревка",
        "en_name": null,
        "latitude": "56.1208",
        "longitude": "101.1703",
        "timezone": "Europe/Moscow"
    }
},
{
    "model": "weather_app.city",
    "pk": 1290,
    "fields": {
        "ru_name": "Железногорск-Илимский",
        "en_name": null,
        "latitude": "56.5847",
        "longitude": "104.1142",
        "timezone": "Europe/Moscow"
    }
},
{
    "model": "weather_app.city",
    "pk": 1291,
    "fields": {
        "ru_name": "Зима",
        "en_name": null,
        "latitude": "53.9207",
        "longitude": "102.0492",
        "timezone": "Europe/Moscow"
    }
},
{
    "model": "weather_app.city",
    "pk": 1292,
    "fields": {
        "ru_name": "Иркутск",
        "en_name": null,
        "latitude": "52.2864",
        "longitude": "104.2807",
        "timezone": "Europe/Moscow"
    }
},
{
    "model": "weather_app.city",
    "pk": 1293,
    "fields": {
        "ru_name": "Киренск",
        "en_name": null,
        "latitude": "57.7757",
        "longitude": "108.1108",
        "timezone": "Europe/Moscow"
    }
},
{
    "model": "weather_app.city",
    "pk": 1294,
    "fields": {
        "ru_name": "Нижнеудинск",
        "en_name": null,
        "latitude": "54.8969",
        "longitude": "99.0313",
        "timezone": "Europe/Moscow"
    }
},
{
    "model": "weather_app.city",
    "pk": 1295,
    "fields": {
        "ru_name": "Саянск",
        "en_name": null,
        "latitude": "54.1108",
        "longitude": "102.1803",
        "timezone": "Europe/Moscow"
    }
},
{
    "model": "weather_app.city",
    "pk": 1296,
    "fields": {
        "ru_name": "Свирск",
        "en_name": null,
        "latitude": "53.0843",
        "longitude": "103.3364",
        "timezone": "Europe/Moscow"
    }
},
{
    "model": "weather_app.city",
    "pk": 1297,
    "fields": {
        "ru_name": "Слюдянка",
        "en_name": null,
        "latitude": "51.6563",
        "longitude": "103.7187",
        "timezone": "Europe/Moscow"
    }
},
{
    "model": "weather_app.city",
    "pk": 1298,
    "fields": {
        "ru_name": "Тайшет",
        "en_name": null,
        "latitude": "55.9405",
        "longitude": "98.0031",
        "timezone": "Europe/Moscow"
    }
},
{
    "model": "weather_app.city",
    "pk": 1299,
    "fields": {
        "ru_name": "Тулун",
        "en_name": null,
        "latitude": "54.5571",
        "longitude": "100.5779",
        "timezone": "Europe/Moscow"
    }
},
{
    "model": "weather_app.city",
    "pk": 1300,
    "fields": {
        "ru_name": "Усолье-Сибирское",
        "en_name": null,
        "latitude": "52.7567",
        "longitude": "103.6388",
        "timezone": "Europe/Moscow"
    }
},
{
    "model": "weather_app.city",
    "pk": 1301,
    "fields": {
        "ru_name": "Усть-Илимск",
        "en_name": null,
        "latitude": "57.9431",
        "longitude": "102.7415",
        "timezone": "Europe/Moscow"
    }
},
{
    "model": "weather_app.city",
    "pk": 1302,
    "fields": {
        "ru_name": "Усть-Кут",
        "en_name": null,
        "latitude": "56.7928",
        "longitude": "105.7757",
        "timezone": "Europe/Moscow"
    }
},
{
    "model": "weather_app.city",
    "pk": 1303,
    "fields": {
        "ru_name": "Черемхово",
        "en_name": null,
        "latitude": "53.1369",
        "longitude": "103.0901",
        "timezone": "Europe/Moscow"
    }
},
{
    "model": "weather_app.city",
    "pk": 1304,
    "fields": {
        "ru_name": "Шелехов",
        "en_name": null,
        "latitude": "52.2102",
        "longitude": "104.0974",
        "timezone": "Europe/Moscow"
    }
},
{
    "model": "weather_app.city",
    "pk": 1305,
    "fields": {
        "ru_name": "Баксан",
        "en_name": null,
        "latitude": "43.6821",
        "longitude": "43.5346",
        "timezone": "Europe/Moscow"
    }
},
{
    "model": "weather_app.city",
    "pk": 1306,
    "fields": {
        "ru_name": "Майский",
        "en_name": null,
        "latitude": "43.6282",
        "longitude": "44.0517",
        "timezone": "Europe/Moscow"
    }
},
{
    "model": "weather_app.city",
    "pk": 1307,
    "fields": {
        "ru_name": "Нальчик",
        "en_name": null,
        "latitude": "43.4846",
        "longitude": "43.6070",
        "timezone": "Europe/Moscow"
    }
},
{
    "model": "weather_app.city",
    "pk": 1308,
    "fields": {
        "ru_name": "Нарткала",
        "en_name": null,
        "latitude": "43.5577",
        "longitude": "43.8576",
        "timezone": "Europe/Moscow"
    }
},
{
    "model": "weather_app.city",
    "pk": 1309,
    "fields": {
        "ru_name": "Прохладный",
        "en_name": null,
        "latitude": "43.7590",
        "longitude": "44.0102",
        "timezone": "Europe/Moscow"
    }
},
{
    "model": "weather_app.city",
    "pk": 1310,
    "fields": {
        "ru_name": "Терек",
        "en_name": null,
        "latitude": "43.4838",
        "longitude": "44.1403",
        "timezone": "Europe/Moscow"
    }
},
{
    "model": "weather_app.city",
    "pk": 1311,
    "fields": {
        "ru_name": "Тырныауз",
        "en_name": null,
        "latitude": "43.3982",
        "longitude": "42.9215",
        "timezone": "Europe/Moscow"
    }
},
{
    "model": "weather_app.city",
    "pk": 1312,
    "fields": {
        "ru_name": "Чегем",
        "en_name": null,
        "latitude": "43.5672",
        "longitude": "43.5865",
        "timezone": "Europe/Moscow"
    }
},
{
    "model": "weather_app.city",
    "pk": 1313,
    "fields": {
        "ru_name": "Багратионовск",
        "en_name": null,
        "latitude": "54.3867",
        "longitude": "20.6419",
        "timezone": "Europe/Moscow"
    }
},
{
    "model": "weather_app.city",
    "pk": 1314,
    "fields": {
        "ru_name": "Балтийск",
        "en_name": null,
        "latitude": "54.6514",
        "longitude": "19.9142",
        "timezone": "Europe/Moscow"
    }
},
{
    "model": "weather_app.city",
    "pk": 1315,
    "fields": {
        "ru_name": "Гвардейск",
        "en_name": null,
        "latitude": "54.6589",
        "longitude": "21.0501",
        "timezone": "Europe/Moscow"
    }
},
{
    "model": "weather_app.city",
    "pk": 1316,
    "fields": {
        "ru_name": "Гурьевск",
        "en_name": null,
        "latitude": "54.7705",
        "longitude": "20.6039",
        "timezone": "Europe/Moscow"
    }
},
{
    "model": "weather_app.city",
    "pk": 1317,
    "fields": {
        "ru_name": "Гусев",
        "en_name": null,
        "latitude": "54.5915",
        "longitude": "22.1944",
        "timezone": "Europe/Moscow"
    }
},
{
    "model": "weather_app.city",
    "pk": 1318,
    "fields": {
        "ru_name": "Зеленоградск",
        "en_name": null,
        "latitude": "54.9600",
        "longitude": "20.4753",
        "timezone": "Europe/Moscow"
    }
},
{
    "model": "weather_app.city",
    "pk": 1319,
    "fields": {
        "ru_name": "Калининград",
        "en_name": null,
        "latitude": "54.7073",
        "longitude": "20.5072",
        "timezone": "Europe/Moscow"
    }
},
{
    "model": "weather_app.city",
    "pk": 1320,
    "fields": {
        "ru_name": "Краснознаменск",
        "en_name": null,
        "latitude": "54.9453",
        "longitude": "22.4929",
        "timezone": "Europe/Moscow"
    }
},
{
    "model": "weather_app.city",
    "pk": 1321,
    "fields": {
        "ru_name": "Ладушкин",
        "en_name": null,
        "latitude": "54.5694",
        "longitude": "20.1692",
        "timezone": "Europe/Moscow"
    }
},
{
    "model": "weather_app.city",
    "pk": 1322,
    "fields": {
        "ru_name": "Мамоново",
        "en_name": null,
        "latitude": "54.4646",
        "longitude": "19.9454",
        "timezone": "Europe/Moscow"
    }
},
{
    "model": "weather_app.city",
    "pk": 1323,
    "fields": {
        "ru_name": "Неман",
        "en_name": null,
        "latitude": "55.0316",
        "longitude": "22.0324",
        "timezone": "Europe/Moscow"
    }
},
{
    "model": "weather_app.city",
    "pk": 1324,
    "fields": {
        "ru_name": "Нестеров",
        "en_name": null,
        "latitude": "54.6314",
        "longitude": "22.5714",
        "timezone": "Europe/Moscow"
    }
},
{
    "model": "weather_app.city",
    "pk": 1325,
    "fields": {
        "ru_name": "Озерск",
        "en_name": null,
        "latitude": "54.4085",
        "longitude": "22.0135",
        "timezone": "Europe/Moscow"
    }
},
{
    "model": "weather_app.city",
    "pk": 1326,
    "fields": {
        "ru_name": "Пионерский",
        "en_name": null,
        "latitude": "54.9517",
        "longitude": "20.2277",
        "timezone": "Europe/Moscow"
    }
},
{
    "model": "weather_app.city",
    "pk": 1327,
    "fields": {
        "ru_name": "Полесск",
        "en_name": null,
        "latitude": "54.8626",
        "longitude": "21.0998",
        "timezone": "Europe/Moscow"
    }
},
{
    "model": "weather_app.city",
    "pk": 1328,
    "fields": {
        "ru_name": "Правдинск",
        "en_name": null,
        "latitude": "54.4431",
        "longitude": "21.0084",
        "timezone": "Europe/Moscow"
    }
},
{
    "model": "weather_app.city",
    "pk": 1329,
    "fields": {
        "ru_name": "Приморск",
        "en_name": null,
        "latitude": "54.7311",
        "longitude": "19.9983",
        "timezone": "Europe/Moscow"
    }
},
{
    "model": "weather_app.city",
    "pk": 1330,
    "fields": {
        "ru_name": "Светлогорск",
        "en_name": null,
        "latitude": "54.9440",
        "longitude": "20.1515",
        "timezone": "Europe/Moscow"
    }
},
{
    "model": "weather_app.city",
    "pk": 1331,
    "fields": {
        "ru_name": "Светлый",
        "en_name": null,
        "latitude": "54.6774",
        "longitude": "20.1357",
        "timezone": "Europe/Moscow"
    }
},
{
    "model": "weather_app.city",
    "pk": 1332,
    "fields": {
        "ru_name": "Славск",
        "en_name": null,
        "latitude": "55.0451",
        "longitude": "21.6742",
        "timezone": "Europe/Moscow"
    }
},
{
    "model": "weather_app.city",
    "pk": 1333,
    "fields": {
        "ru_name": "Советск",
        "en_name": null,
        "latitude": "55.0810",
        "longitude": "21.8886",
        "timezone": "Europe/Moscow"
    }
},
{
    "model": "weather_app.city",
    "pk": 1334,
    "fields": {
        "ru_name": "Черняховск",
        "en_name": null,
        "latitude": "54.6244",
        "longitude": "21.7969",
        "timezone": "Europe/Moscow"
    }
},
{
    "model": "weather_app.city",
    "pk": 1335,
    "fields": {
        "ru_name": "Городовиковск",
        "en_name": null,
        "latitude": "46.0875",
        "longitude": "41.9354",
        "timezone": "Europe/Moscow"
    }
},
{
    "model": "weather_app.city",
    "pk": 1336,
    "fields": {
        "ru_name": "Лагань",
        "en_name": null,
        "latitude": "45.3930",
        "longitude": "47.3433",
        "timezone": "Europe/Moscow"
    }
},
{
    "model": "weather_app.city",
    "pk": 1337,
    "fields": {
        "ru_name": "Элиста",
        "en_name": null,
        "latitude": "46.3083",
        "longitude": "44.2701",
        "timezone": "Europe/Moscow"
    }
},
{
    "model": "weather_app.city",
    "pk": 1338,
    "fields": {
        "ru_name": "Балабаново",
        "en_name": null,
        "latitude": "55.1774",
        "longitude": "36.6567",
        "timezone": "Europe/Moscow"
    }
},
{
    "model": "weather_app.city",
    "pk": 1339,
    "fields": {
        "ru_name": "Белоусово",
        "en_name": null,
        "latitude": "55.0958",
        "longitude": "36.6777",
        "timezone": "Europe/Moscow"
    }
},
{
    "model": "weather_app.city",
    "pk": 1340,
    "fields": {
        "ru_name": "Боровск",
        "en_name": null,
        "latitude": "55.2131",
        "longitude": "36.4927",
        "timezone": "Europe/Moscow"
    }
},
{
    "model": "weather_app.city",
    "pk": 1341,
    "fields": {
        "ru_name": "Ермолино",
        "en_name": null,
        "latitude": "55.1973",
        "longitude": "36.5952",
        "timezone": "Europe/Moscow"
    }
},
{
    "model": "weather_app.city",
    "pk": 1342,
    "fields": {
        "ru_name": "Жиздра",
        "en_name": null,
        "latitude": "53.7522",
        "longitude": "34.7387",
        "timezone": "Europe/Moscow"
    }
},
{
    "model": "weather_app.city",
    "pk": 1343,
    "fields": {
        "ru_name": "Жуков",
        "en_name": null,
        "latitude": "55.0301",
        "longitude": "36.7393",
        "timezone": "Europe/Moscow"
    }
},
{
    "model": "weather_app.city",
    "pk": 1344,
    "fields": {
        "ru_name": "Калуга",
        "en_name": null,
        "latitude": "54.5060",
        "longitude": "36.2516",
        "timezone": "Europe/Moscow"
    }
},
{
    "model": "weather_app.city",
    "pk": 1345,
    "fields": {
        "ru_name": "Киров",
        "en_name": null,
        "latitude": "54.0791",
        "longitude": "34.3078",
        "timezone": "Europe/Moscow"
    }
},
{
    "model": "weather_app.city",
    "pk": 1346,
    "fields": {
        "ru_name": "Козельск",
        "en_name": null,
        "latitude": "54.0348",
        "longitude": "35.7807",
        "timezone": "Europe/Moscow"
    }
},
{
    "model": "weather_app.city",
    "pk": 1347,
    "fields": {
        "ru_name": "Кондрово",
        "en_name": null,
        "latitude": "54.7961",
        "longitude": "35.9276",
        "timezone": "Europe/Moscow"
    }
},
{
    "model": "weather_app.city",
    "pk": 1348,
    "fields": {
        "ru_name": "Кременки",
        "en_name": null,
        "latitude": "54.8863",
        "longitude": "37.1169",
        "timezone": "Europe/Moscow"
    }
},
{
    "model": "weather_app.city",
    "pk": 1349,
    "fields": {
        "ru_name": "Людиново",
        "en_name": null,
        "latitude": "53.8701",
        "longitude": "34.4385",
        "timezone": "Europe/Moscow"
    }
},
{
    "model": "weather_app.city",
    "pk": 1350,
    "fields": {
        "ru_name": "Малоярославец",
        "en_name": null,
        "latitude": "55.0177",
        "longitude": "36.4632",
        "timezone": "Europe/Moscow"
    }
},
{
    "model": "weather_app.city",
    "pk": 1351,
    "fields": {
        "ru_name": "Медынь",
        "en_name": null,
        "latitude": "54.9691",
        "longitude": "35.8873",
        "timezone": "Europe/Moscow"
    }
},
{
    "model": "weather_app.city",
    "pk": 1352,
    "fields": {
        "ru_name": "Мещовск",
        "en_name": null,
        "latitude": "54.3191",
        "longitude": "35.2816",
        "timezone": "Europe/Moscow"
    }
},
{
    "model": "weather_app.city",
    "pk": 1353,
    "fields": {
        "ru_name": "Мосальск",
        "en_name": null,
        "latitude": "54.4826",
        "longitude": "34.9872",
        "timezone": "Europe/Moscow"
    }
},
{
    "model": "weather_app.city",
    "pk": 1354,
    "fields": {
        "ru_name": "Обнинск",
        "en_name": null,
        "latitude": "55.0944",
        "longitude": "36.6122",
        "timezone": "Europe/Moscow"
    }
},
{
    "model": "weather_app.city",
    "pk": 1355,
    "fields": {
        "ru_name": "Сосенский",
        "en_name": null,
        "latitude": "54.0565",
        "longitude": "35.9621",
        "timezone": "Europe/Moscow"
    }
},
{
    "model": "weather_app.city",
    "pk": 1356,
    "fields": {
        "ru_name": "Спас-Деменск",
        "en_name": null,
        "latitude": "54.4099",
        "longitude": "34.0190",
        "timezone": "Europe/Moscow"
    }
},
{
    "model": "weather_app.city",
    "pk": 1357,
    "fields": {
        "ru_name": "Сухиничи",
        "en_name": null,
        "latitude": "54.0974",
        "longitude": "35.3443",
        "timezone": "Europe/Moscow"
    }
},
{
    "model": "weather_app.city",
    "pk": 1358,
    "fields": {
        "ru_name": "Таруса",
        "en_name": null,
        "latitude": "54.7237",
        "longitude": "37.1671",
        "timezone": "Europe/Moscow"
    }
},
{
    "model": "weather_app.city",
    "pk": 1359,
    "fields": {
        "ru_name": "Юхнов",
        "en_name": null,
        "latitude": "54.7446",
        "longitude": "35.2425",
        "timezone": "Europe/Moscow"
    }
},
{
    "model": "weather_app.city",
    "pk": 1360,
    "fields": {
        "ru_name": "Вилючинск",
        "en_name": null,
        "latitude": "52.9304",
        "longitude": "158.4057",
        "timezone": "Europe/Moscow"
    }
},
{
    "model": "weather_app.city",
    "pk": 1361,
    "fields": {
        "ru_name": "Елизово",
        "en_name": null,
        "latitude": "53.1830",
        "longitude": "158.3883",
        "timezone": "Europe/Moscow"
    }
},
{
    "model": "weather_app.city",
    "pk": 1362,
    "fields": {
        "ru_name": "Петропавловск-Камчатский",
        "en_name": null,
        "latitude": "53.0370",
        "longitude": "158.6559",
        "timezone": "Europe/Moscow"
    }
},
{
    "model": "weather_app.city",
    "pk": 1363,
    "fields": {
        "ru_name": "Карачаевск",
        "en_name": null,
        "latitude": "43.7732",
        "longitude": "41.9144",
        "timezone": "Europe/Moscow"
    }
},
{
    "model": "weather_app.city",
    "pk": 1364,
    "fields": {
        "ru_name": "Теберда",
        "en_name": null,
        "latitude": "43.4438",
        "longitude": "41.7415",
        "timezone": "Europe/Moscow"
    }
},
{
    "model": "weather_app.city",
    "pk": 1365,
    "fields": {
        "ru_name": "Усть-Джегута",
        "en_name": null,
        "latitude": "44.0839",
        "longitude": "41.9711",
        "timezone": "Europe/Moscow"
    }
},
{
    "model": "weather_app.city",
    "pk": 1366,
    "fields": {
        "ru_name": "Черкесск",
        "en_name": null,
        "latitude": "44.2269",
        "longitude": "42.0468",
        "timezone": "Europe/Moscow"
    }
},
{
    "model": "weather_app.city",
    "pk": 1367,
    "fields": {
        "ru_name": "Беломорск",
        "en_name": null,
        "latitude": "64.5378",
        "longitude": "34.7800",
        "timezone": "Europe/Moscow"
    }
},
{
    "model": "weather_app.city",
    "pk": 1368,
    "fields": {
        "ru_name": "Кемь",
        "en_name": null,
        "latitude": "64.9544",
        "longitude": "34.5949",
        "timezone": "Europe/Moscow"
    }
},
{
    "model": "weather_app.city",
    "pk": 1369,
    "fields": {
        "ru_name": "Кондопога",
        "en_name": null,
        "latitude": "62.2060",
        "longitude": "34.2682",
        "timezone": "Europe/Moscow"
    }
},
{
    "model": "weather_app.city",
    "pk": 1370,
    "fields": {
        "ru_name": "Костомукша",
        "en_name": null,
        "latitude": "64.5890",
        "longitude": "30.6016",
        "timezone": "Europe/Moscow"
    }
},
{
    "model": "weather_app.city",
    "pk": 1371,
    "fields": {
        "ru_name": "Лахденпохья",
        "en_name": null,
        "latitude": "61.5189",
        "longitude": "30.1996",
        "timezone": "Europe/Moscow"
    }
},
{
    "model": "weather_app.city",
    "pk": 1372,
    "fields": {
        "ru_name": "Медвежьегорск",
        "en_name": null,
        "latitude": "62.9128",
        "longitude": "34.4568",
        "timezone": "Europe/Moscow"
    }
},
{
    "model": "weather_app.city",
    "pk": 1373,
    "fields": {
        "ru_name": "Олонец",
        "en_name": null,
        "latitude": "60.9794",
        "longitude": "32.9726",
        "timezone": "Europe/Moscow"
    }
},
{
    "model": "weather_app.city",
    "pk": 1374,
    "fields": {
        "ru_name": "Петрозаводск",
        "en_name": null,
        "latitude": "61.7891",
        "longitude": "34.3596",
        "timezone": "Europe/Moscow"
    }
},
{
    "model": "weather_app.city",
    "pk": 1375,
    "fields": {
        "ru_name": "Питкяранта",
        "en_name": null,
        "latitude": "61.5757",
        "longitude": "31.4641",
        "timezone": "Europe/Moscow"
    }
},
{
    "model": "weather_app.city",
    "pk": 1376,
    "fields": {
        "ru_name": "Пудож",
        "en_name": null,
        "latitude": "61.8059",
        "longitude": "36.5330",
        "timezone": "Europe/Moscow"
    }
},
{
    "model": "weather_app.city",
    "pk": 1377,
    "fields": {
        "ru_name": "Сегежа",
        "en_name": null,
        "latitude": "63.7437",
        "longitude": "34.3127",
        "timezone": "Europe/Moscow"
    }
},
{
    "model": "weather_app.city",
    "pk": 1378,
    "fields": {
        "ru_name": "Сортавала",
        "en_name": null,
        "latitude": "61.7032",
        "longitude": "30.6917",
        "timezone": "Europe/Moscow"
    }
},
{
    "model": "weather_app.city",
    "pk": 1379,
    "fields": {
        "ru_name": "Суоярви",
        "en_name": null,
        "latitude": "62.0788",
        "longitude": "32.3499",
        "timezone": "Europe/Moscow"
    }
},
{
    "model": "weather_app.city",
    "pk": 1380,
    "fields": {
        "ru_name": "Анжеро-Судженск",
        "en_name": null,
        "latitude": "56.0787",
        "longitude": "86.0202",
        "timezone": "Europe/Moscow"
    }
},
{
    "model": "weather_app.city",
    "pk": 1381,
    "fields": {
        "ru_name": "Белово",
        "en_name": null,
        "latitude": "54.4221",
        "longitude": "86.3036",
        "timezone": "Europe/Moscow"
    }
},
{
    "model": "weather_app.city",
    "pk": 1382,
    "fields": {
        "ru_name": "Березовский",
        "en_name": null,
        "latitude": "55.6693",
        "longitude": "86.2745",
        "timezone": "Europe/Moscow"
    }
},
{
    "model": "weather_app.city",
    "pk": 1383,
    "fields": {
        "ru_name": "Калтан",
        "en_name": null,
        "latitude": "53.5210",
        "longitude": "87.2772",
        "timezone": "Europe/Moscow"
    }
},
{
    "model": "weather_app.city",
    "pk": 1384,
    "fields": {
        "ru_name": "Кемерово",
        "en_name": null,
        "latitude": "55.3910",
        "longitude": "86.0468",
        "timezone": "Europe/Moscow"
    }
},
{
    "model": "weather_app.city",
    "pk": 1385,
    "fields": {
        "ru_name": "Киселевск",
        "en_name": null,
        "latitude": "54.0060",
        "longitude": "86.6367",
        "timezone": "Europe/Moscow"
    }
},
{
    "model": "weather_app.city",
    "pk": 1386,
    "fields": {
        "ru_name": "Ленинск-Кузнецкий",
        "en_name": null,
        "latitude": "54.6674",
        "longitude": "86.1797",
        "timezone": "Europe/Moscow"
    }
},
{
    "model": "weather_app.city",
    "pk": 1387,
    "fields": {
        "ru_name": "Мариинск",
        "en_name": null,
        "latitude": "56.2128",
        "longitude": "87.7454",
        "timezone": "Europe/Moscow"
    }
},
{
    "model": "weather_app.city",
    "pk": 1388,
    "fields": {
        "ru_name": "Междуреченск",
        "en_name": null,
        "latitude": "53.6866",
        "longitude": "88.0704",
        "timezone": "Europe/Moscow"
    }
},
{
    "model": "weather_app.city",
    "pk": 1389,
    "fields": {
        "ru_name": "Мыски",
        "en_name": null,
        "latitude": "53.7126",
        "longitude": "87.8057",
        "timezone": "Europe/Moscow"
    }
},
{
    "model": "weather_app.city",
    "pk": 1390,
    "fields": {
        "ru_name": "Новокузнецк",
        "en_name": null,
        "latitude": "53.7943",
        "longitude": "87.2144",
        "timezone": "Europe/Moscow"
    }
},
{
    "model": "weather_app.city",
    "pk": 1391,
    "fields": {
        "ru_name": "Осинники",
        "en_name": null,
        "latitude": "53.5987",
        "longitude": "87.3370",
        "timezone": "Europe/Moscow"
    }
},
{
    "model": "weather_app.city",
    "pk": 1392,
    "fields": {
        "ru_name": "Полысаево",
        "en_name": null,
        "latitude": "54.6054",
        "longitude": "86.2809",
        "timezone": "Europe/Moscow"
    }
},
{
    "model": "weather_app.city",
    "pk": 1393,
    "fields": {
        "ru_name": "Прокопьевск",
        "en_name": null,
        "latitude": "53.8605",
        "longitude": "86.7183",
        "timezone": "Europe/Moscow"
    }
},
{
    "model": "weather_app.city",
    "pk": 1394,
    "fields": {
        "ru_name": "Салаир",
        "en_name": null,
        "latitude": "54.2352",
        "longitude": "85.8029",
        "timezone": "Europe/Moscow"
    }
},
{
    "model": "weather_app.city",
    "pk": 1395,
    "fields": {
        "ru_name": "Тайга",
        "en_name": null,
        "latitude": "56.0623",
        "longitude": "85.6208",
        "timezone": "Europe/Moscow"
    }
},
{
    "model": "weather_app.city",
    "pk": 1396,
    "fields": {
        "ru_name": "Таштагол",
        "en_name": null,
        "latitude": "52.7595",
        "longitude": "87.8477",
        "timezone": "Europe/Moscow"
    }
},
{
    "model": "weather_app.city",
    "pk": 1397,
    "fields": {
        "ru_name": "Топки",
        "en_name": null,
        "latitude": "55.2766",
        "longitude": "85.6153",
        "timezone": "Europe/Moscow"
    }
},
{
    "model": "weather_app.city",
    "pk": 1398,
    "fields": {
        "ru_name": "Юрга",
        "en_name": null,
        "latitude": "55.7203",
        "longitude": "84.8886",
        "timezone": "Europe/Moscow"
    }
},
{
    "model": "weather_app.city",
    "pk": 1399,
    "fields": {
        "ru_name": "Белая Холуница",
        "en_name": null,
        "latitude": "58.8415",
        "longitude": "50.8461",
        "timezone": "Europe/Moscow"
    }
},
{
    "model": "weather_app.city",
    "pk": 1400,
    "fields": {
        "ru_name": "Вятские Поляны",
        "en_name": null,
        "latitude": "56.2286",
        "longitude": "51.0615",
        "timezone": "Europe/Moscow"
    }
},
{
    "model": "weather_app.city",
    "pk": 1401,
    "fields": {
        "ru_name": "Зуевка",
        "en_name": null,
        "latitude": "58.4032",
        "longitude": "51.1331",
        "timezone": "Europe/Moscow"
    }
},
{
    "model": "weather_app.city",
    "pk": 1402,
    "fields": {
        "ru_name": "Кирово-Чепецк",
        "en_name": null,
        "latitude": "58.5560",
        "longitude": "50.0318",
        "timezone": "Europe/Moscow"
    }
},
{
    "model": "weather_app.city",
    "pk": 1403,
    "fields": {
        "ru_name": "Кирс",
        "en_name": null,
        "latitude": "59.3401",
        "longitude": "52.2416",
        "timezone": "Europe/Moscow"
    }
},
{
    "model": "weather_app.city",
    "pk": 1404,
    "fields": {
        "ru_name": "Котельнич",
        "en_name": null,
        "latitude": "58.3035",
        "longitude": "48.3474",
        "timezone": "Europe/Moscow"
    }
},
{
    "model": "weather_app.city",
    "pk": 1405,
    "fields": {
        "ru_name": "Луза",
        "en_name": null,
        "latitude": "60.6291",
        "longitude": "47.2612",
        "timezone": "Europe/Moscow"
    }
},
{
    "model": "weather_app.city",
    "pk": 1406,
    "fields": {
        "ru_name": "Малмыж",
        "en_name": null,
        "latitude": "56.5244",
        "longitude": "50.6783",
        "timezone": "Europe/Moscow"
    }
},
{
    "model": "weather_app.city",
    "pk": 1407,
    "fields": {
        "ru_name": "Мураши",
        "en_name": null,
        "latitude": "59.3956",
        "longitude": "48.9638",
        "timezone": "Europe/Moscow"
    }
},
{
    "model": "weather_app.city",
    "pk": 1408,
    "fields": {
        "ru_name": "Нолинск",
        "en_name": null,
        "latitude": "57.5597",
        "longitude": "49.9358",
        "timezone": "Europe/Moscow"
    }
},
{
    "model": "weather_app.city",
    "pk": 1409,
    "fields": {
        "ru_name": "Омутнинск",
        "en_name": null,
        "latitude": "58.6698",
        "longitude": "52.1894",
        "timezone": "Europe/Moscow"
    }
},